"created_on","provincia","partido","rooms","surface_total","surface_covered","price","currency","title","property_type","operation_type","lat","lon"
"202006","CABA","Comuna 7",1,40,37,22500,"ARS","Departamento - Flores","Departamento","Alquiler",-34.619175,-58.4622191
"202006","CABA","Comuna 13",1,30,30,18000,"ARS","Retasado! Monoambiente en Nuñez, excelente ubicación!","Departamento","Alquiler",-34.5546024135,-58.4665175968
"202006","CABA","Comuna 13",1,31,29,17900,"ARS","Departamento - Belgrano","Departamento","Alquiler",-34.563179,-58.4646081
"202006","CABA","Comuna 1",1,35,35,42000,"ARS","Monoambiente con cochera. Zencity. Puerto Madero","Departamento","Alquiler",-34.6183551151,-58.3608973857
"202006","GBA","Vicente López",1,36,27,19000,"ARS","Alquiler TORRE dpto de 1o2 ambientes - excelente luz y vista cochera optativa","Departamento","Alquiler",-34.5334427,-58.4934526
"202006","GBA","La Matanza",2,24,24,12000,"ARS","PH - Lomas Del Mirador","PH","Alquiler",-34.6625311,-58.5291444
"202006","GBA","General San Martín",2,40,40,15000,"ARS","PH - Chilavert","PH","Alquiler",-34.5430063,-58.5757339
"202006","CABA","Comuna 13",2,60,50,32000,"ARS","Depto 2AMB c/ Suite y Toilette  - Deheza 1600 - Incluye Cochera","Departamento","Alquiler",-34.5379549,-58.4667092
"202006","CABA","Comuna 13",2,53,44,26000,"ARS","Unico 2 ambientes A Estrenar! Posesion inmediata! - Nuñez","Departamento","Alquiler",-34.5475568,-58.4703691
"202006","CABA","Comuna 1",2,39,34,14000,"ARS","DEPARTAMENTO-OFICINA 2 AMB AL FRENTE CON BALCÓN APTO PROFES PLAZA SAN MARTIN","Departamento","Alquiler",-34.5965459,-58.3744272
"202006","CABA","Comuna 5",2,45,38,20000,"ARS","Departamento de 2 ambientes en Alquiler en Almagro","Departamento","Alquiler",-34.6061252346,-58.4294671732
"202006","CABA","Comuna 12",2,42,37,22000,"ARS","Depto 2AMB - Av. Balbin 3400 - ALQUILER","Departamento","Alquiler",-34.5569991,-58.4789811
"202006","CABA","Comuna 14",2,43,33,27000,"ARS","Dos ambientes con Balcón a Demaría y Patio.","Departamento","Alquiler",-34.5742139495,-58.4224332846
"202006","CABA","Comuna 13",2,55,55,45000,"ARS","BLANCO ENCALADA AL 3000 A ESTRENAR","Departamento","Alquiler",-34.5631335,-58.4655023
"202006","CABA","Comuna 14",2,48,48,23000,"ARS","Departamento - Belgrano","Departamento","Alquiler",-34.5645618,-58.4355947
"202006","GBA","La Plata",2,50,50,18000,"ARS","Alquiler, depto de un domitorio frente al parque San Martin","Departamento","Alquiler",-34.9341467304,-57.9660540652
"202006","GBA","La Plata",2,35,35,13500,"ARS","Departamento - La Plata","Departamento","Alquiler",-34.9064534615,-57.9733496737
"202006","CABA","Comuna 1",2,45,45,32000,"ARS","Departamento - Recoleta","Departamento","Alquiler",-34.5970758,-58.3843923
"202006","CABA","Comuna 6",2,46,42,15000,"ARS","Departamento - Caballito","Departamento","Alquiler",-34.608312,-58.4419105
"202006","GBA","Hurlingham",2,45,45,14800,"ARS","Departamento  2 ambientes, Ituzaingo","Departamento","Alquiler",-34.6250839,-58.660399
"202006","CABA","Comuna 2",2,50,35,26000,"ARS","Anchorena 1100 – 2 ambientes con balcon aterrazado y terraza común!","Departamento","Alquiler",-34.595651,-58.4067079
"202006","CABA","Comuna 2",2,41,41,18000,"ARS","Departamento - Barrio Norte","Departamento","Alquiler",-34.5921625,-58.4045308
"202006","CABA","Comuna 14",2,40,40,18000,"ARS","Departamento - Villa Crespo","Departamento","Alquiler",-34.5953939,-58.4317591
"202006","CABA","Comuna 15",2,46,46,20000,"ARS","Departamento de 2 ambientes en Alquiler en Villa crespo","Departamento","Alquiler",-34.5959688801,-58.4400177163
"202006","CABA","Comuna 12",2,48,40,20000,"ARS","EXCELENTE 2 AMBIENTES AL FRENTE CON BALCON EN VILLA URQUIZA, EDIFICIO CON PISCINA Y PARILLA","Departamento","Alquiler",-34.5705179,-58.4914578
"202006","GBA","Vicente López",2,40,33,23000,"ARS","Departamento 2 ambientes impecable - Olivos","Departamento","Alquiler",-34.508992,-58.4814443
"202006","GBA","Lomas de Zamora",2,45,42,14000,"ARS","Departamento - Lomas de Zamora Este","Departamento","Alquiler",-34.7592533,-58.395937
"202006","GBA","Lomas de Zamora",2,44,44,20000,"ARS","Departamento - Lomas de Zamora Oeste","Departamento","Alquiler",-34.7626139,-58.4053147
"202006","GBA","General San Martín",2,56,48,14000,"ARS","Departamento céntrico - Villa Ballester","Departamento","Alquiler",-34.5503757,-58.5551186
"202006","GBA","Ituzaingó",3,75,75,19000,"ARS","Americana a 6 cuadras de la estacion de S.A. de Padua","Casa","Alquiler",-34.6595669,-58.6971159
"202006","GBA","Tigre",3,95,80,42000,"ARS","3 AMBIENTES EN EDIFICIO MIRADORES DE LA BAHIA CON COCHERA FIJA","Departamento","Alquiler",-34.3964183,-58.6466527
"202006","GBA","Tigre",3,98,90,42000,"ARS","¡EN EXCLUSIVA! Departamento en alquiler de 3 ambientes Miradores de La Bahía, Bahía de Nordelta.","Departamento","Alquiler",-34.3951200428,-58.6466471814
"202006","CABA","Comuna 13",3,109,94,90000,"ARS","Alquiler Depto 3 Amb a Estrenar Nuñez C/Cochera","Departamento","Alquiler",-34.5452095,-58.4628614
"202006","CABA","Comuna 14",3,152,152,240000,"ARS","ALQUILER en TORRES DE GELLY 152 m2 con 2 dorm dep y 1 coch ALTO vista Rio  SIN muebles","Departamento","Alquiler",-34.5776022,-58.4049865
"202006","CABA","Comuna 14",3,90,85,80000,"ARS","ALQUILER 3 AMB CON DEPENDENCIA! - Y COCHERA TORRE AMENITIES!!","Departamento","Alquiler",-34.5935318,-58.4146161
"202006","CABA","Comuna 14",3,64,60,25000,"ARS","Departamento de 3 ambientes en Alquiler en Palermo","Departamento","Alquiler",-34.59680321,-58.4236267177
"202006","CABA","Comuna 14",3,152,152,240000,"ARS","ALQUILER en TORRES DE GELLY 152 m2 con 2 dorm dep y 1 coch ALTO vista Rio","Departamento","Alquiler",-34.5776022,-58.4049865
"202006","CABA","Comuna 14",3,152,152,240000,"ARS","ALQUILER en TORRES DE GELLY 152 m2 con 2 dorm dep y 1 coch ALTO vista Rio SIN muebles","Departamento","Alquiler",-34.5776022,-58.4049865
"202006","GBA","La Plata",3,40,40,10000,"ARS","Departamento - José Hernández","Departamento","Alquiler",-34.8976811478,-58.0278697602
"202006","GBA","La Plata",3,45,45,13000,"ARS","Departamento - La Plata","Departamento","Alquiler",-34.9165184241,-57.9440384936
"202006","CABA","Comuna 6",3,55,50,37000,"ARS","Departamento - Caballito Norte","Departamento","Alquiler",-34.6125001,-58.4435468
"202006","CABA","Comuna 6",3,62,59,33000,"ARS","Departamento 3 ambientes con balcón en Caballito","Departamento","Alquiler",-34.6304243,-58.4509511
"202006","CABA","Comuna 2",3,87,87,42000,"ARS","Av Pueyrredon y French","Departamento","Alquiler",-34.5902414,-58.4005675
"202006","CABA","Comuna 1",3,57,57,24000,"ARS","IMPECABLE DEPTO 3 AMB APTO PROF MUY LUMINOSO BAJAS EXPENSAS OPCIONAL AMOBLADO","Departamento","Alquiler",-34.6065237,-58.3901595
"202006","CABA","Comuna 14",3,64,60,25000,"ARS","Departamento de 3 ambientes en Alquiler en Villa crespo","Departamento","Alquiler",-34.59680321,-58.4236267177
"202006","CABA","Comuna 1",3,95,85,95000,"ARS","Departamento 3 ambientes con gran balcón aterrazado y cochera en Puerto Madero","Departamento","Alquiler",-34.6115385825,-58.3621419307
"202006","CABA","Comuna 1",3,80,70,50000,"ARS","ALQUILER 3 AMBIENTES PUERTO MADERO, AMOBLADO","Departamento","Alquiler",-34.6161184,-58.3620692
"202006","CABA","Comuna 1",3,135,130,210000,"ARS","Depto alquiler 3 ambientes con cochera y amenities en Torre River View, Puerto Madero","Departamento","Alquiler",-34.6060815,-58.363063
"202006","GBA","Vicente López",3,57,52,16000,"ARS","Departamento - Florida Mitre/Este","Departamento","Alquiler",-34.5335505,-58.4800733
"202006","CABA","Comuna 14",4,125,105,85000,"ARS","PH en alquiler 4 ambientes - Las Cañitas","PH","Alquiler",-34.5720661,-58.4324886
"202006","GBA","Merlo",4,180,140,27000,"ARS","Casa en Padua 3 dormitorios en alquiler","Casa","Alquiler",-34.6615401,-58.7156537
"202006","GBA","Pilar",4,267,267,50000,"ARS","Casa en venta o alquiler en La Peregrina","Casa","Alquiler",-34.4709128693,-58.822702889
"202006","GBA","Escobar",4,166,136,34000,"ARS","Casa en Venta 4 Ambientes Barrio El Ensueño","Casa","Alquiler",-34.366851005,-58.7409350767
"202006","GBA","San Isidro",4,180,180,48000,"ARS","Casa - Villa Adelina","Casa","Alquiler",-34.5101195,-58.5449386
"202006","GBA","Tigre",4,223,146,90000,"ARS","Los Robles Village - Departamento en venta","Departamento","Alquiler",-34.4305099,-58.5896953
"202006","CABA","Comuna 14",4,91,84,74000,"ARS","Alquiler en Palermo departamento 4 ambientes con cochera en Torre con amenities","Departamento","Alquiler",-34.5847774,-58.4227935
"202006","CABA","Comuna 2",4,72,62,35000,"ARS","Departamento - 4 ambientes con cochera en Recoleta!","Departamento","Alquiler",-34.5924866,-58.3987505
"202006","CABA","Comuna 6",4,93,84,42000,"ARS","Departamento - Caballito","Departamento","Alquiler",-34.6215498,-58.4310929
"202006","GBA","San Isidro",4,193,153,74000,"ARS","Departamento - San Isidro Central","Departamento","Alquiler",-34.474716,-58.5210255
"202006","GBA","Tigre",5,343,310,75000,"ARS","Casa en ALQUILER y VENTA en EL ENCUENTRO - Alquiler $75.000 / Venta USD 580.000.-","Casa","Alquiler",-34.4324275,-58.6723292
"202006","GBA","Escobar",5,290,235,80000,"ARS","Casa en venta en Barrio San Marco Villanueva - USD 400.000","Casa","Alquiler",-34.3895838,-58.7201261
"202006","GBA","Escobar",5,180,130,45000,"ARS","Casa - La Barra Village","Casa","Alquiler",-34.3683684048,-58.7821889711
"202006","CABA","Comuna 10",5,100,97,20000,"ARS","ALQUILO MUY BUEN DEPARTAMENTO 5 AMBIENTES EN FLORESTA","Departamento","Alquiler",-34.634932,-58.4809876
"202006","GBA","Tigre",6,330,225,75000,"ARS","Casa en Alquiler con Pileta en BARRANCAS DEL LAGO NORDELTA $75.000","Casa","Alquiler",-34.4204092,-58.6642047
"202006","GBA","Vicente López",7,550,400,150000,"ARS","ESPECTACULAR  CASA EN GASPAR CAMPOS - LA MEJOR CUADRA DE VICENTE LOPEZ!","Casa","Alquiler",-34.5266023,-58.4766332
"202006","GBA","Tigre",1,55,40,110000,"USD","Departamento de 1 amb. en venta en North Coral Plaza Nordelta USD 110.000.-","Departamento","Venta",-34.4008097,-58.6524757
"202006","GBA","Tigre",1,49,40,100000,"USD","Departamento Monoambiente en Loft del Sendero AMOBLADO USD 100.000.-","Departamento","Venta",-34.4033675,-58.6489966
"202006","CABA","Comuna 13",1,30,30,75000,"USD","Retasado! Monoambiente en Nuñez, excelente ubicación!","Departamento","Venta",-34.5546024135,-58.4665175968
"202006","CABA","Comuna 13",1,52,45,170000,"USD","Departamento - Coghlan","Departamento","Venta",-34.5627857,-58.4660468
"202006","CABA","Comuna 14",1,33,29,125000,"USD","Departamento - Palermo","Departamento","Venta",-34.5867978,-58.4085036
"202006","CABA","Comuna 14",1,34,30,71400,"USD","Emprendimiento en Palermo Holywood - Departamento 1 amb. con Balcón","Departamento","Venta",-34.5797730312,-58.4293844116
"202006","CABA","Comuna 15",1,33,33,83895,"USD","Oportunidad monoambiente","Departamento","Venta",-34.6075947,-58.4457497
"202006","CABA","Comuna 15",1,50,42,127015,"USD","Excelente oportunidad. Edificio nuevo en fase final de construcción","Departamento","Venta",-34.6075947,-58.4457497
"202006","CABA","Comuna 15",1,35,31,100000,"USD","OPORTUNIDAD VENTA MONOAMBIENTE A ESTRENAR UBICADO EN VILLA URQUIZA","Departamento","Venta",-34.579832,-58.47667
"202006","CABA","Comuna 11",2,52,52,104000,"USD","Depto.tipo casa de 2 ambientes en Venta en Paternal","PH","Venta",-34.607169,-58.467007
"202006","GBA","Ituzaingó",2,92,43,80000,"USD","PH DE 2 AMBIENTES A ESTRENAR EN ITUZAINGO NORTE","PH","Venta",-34.6461127,-58.6811918
"202006","CABA","Comuna 15",2,45,45,95000,"USD","Depto.tipo casa de 2 ambientes en Venta en Villa urquiza","PH","Venta",-34.5798985157,-58.4723123729
"202006","CABA","Comuna 11",2,52,52,105000,"USD","Depto.tipo casa de 2 ambientes en Venta en Villa gral.mitre","PH","Venta",-34.607169,-58.467007
"202006","GBA","La Plata",2,100,65,75000,"USD","139 entre 34 y 35. Duplex de 2 dorm en venta, San Carlos","Casa","Venta",-34.9329958303,-57.9993490275
"202006","CABA","Comuna 3",2,40,40,80000,"USD","OPORTUNIDAD! VENTA DEPARTAMENTO 2 AMBIENTES UBICADO EN EL CENTRO DE LA CIUDAD","Departamento","Venta",-34.6047026,-58.3962083
"202006","CABA","Comuna 5",2,30,30,65000,"USD","Departamento de 2 ambientes en Venta en Boedo","Departamento","Venta",-34.6261125628,-58.4190830127
"202006","GBA","Tigre",2,115,50,165000,"USD","Departamento 2 amb. en venta en Nordelta -  Edificio Insignia - Barrio El Palmar - USD 165.000.-","Departamento","Venta",-34.4247,-58.6583108
"202006","GBA","Tigre",2,85,70,155000,"USD","Departamento en venta con renta de 2 ambientes en Edificio 01 Tigre - USD 155.000.- CERO UNO TIGRE","Departamento","Venta",-34.4331419,-58.583538
"202006","GBA","Tigre",2,160,80,293000,"USD","Departamento 2 amb. en Marinas del Canal, Bahía Grande, Nordelta USD 293.000.-","Departamento","Venta",-34.3943297,-58.6452402
"202006","GBA","Tigre",2,69,60,160000,"USD","Departamento en VENTA QBAY GOLF - USD 160.000.-","Departamento","Venta",-34.409058,-58.6325064
"202006","GBA","Tigre",2,69,60,160000,"USD","Departamento en venta en Qbay Golf - 2 amb. - USD 193.000.-","Departamento","Venta",-34.409058,-58.6325064
"202006","GBA","Tigre",2,80,65,165000,"USD","Departamento de 2 amb. en venta en North Coral Plaza Nordelta USD 165.000.-","Departamento","Venta",-34.4008097,-58.6524757
"202006","GBA","Tigre",2,75,64,259000,"USD","Excelente y luminoso departamento de 2 ambientes. al rio. golf amarras, spa.","Departamento","Venta",-34.4050954,-58.6242532
"202006","CABA","Comuna 7",2,55,49,155000,"USD","Venta Departamento 2 ambientes balcon cochera parrilla Flores","Departamento","Venta",-34.6243707,-58.457228
"202006","CABA","Comuna 1",2,39,34,73000,"USD","DEPARTAMENTO-OFICINA 2 AMB AL FRENTE CON BALCÓN APTO PROFES PLAZA SAN MARTIN","Departamento","Venta",-34.5965459,-58.3744272
"202006","CABA","Comuna 5",2,74,56,160000,"USD","Departamento de 2 ambientes en Venta en Almagro","Departamento","Venta",-34.6156201897,-58.4226390036
"202006","CABA","Comuna 5",2,40,40,83000,"USD","Departamento de 2 ambientes en Venta en Almagro","Departamento","Venta",-34.6099131955,-58.4250902939
"202006","CABA","Comuna 15",2,66,58,190000,"USD","Departamento de 2 ambientes en Venta en Almagro","Departamento","Venta",-34.5982192139,-58.4300380813
"202006","CABA","Comuna 5",2,68,65,139500,"USD","Departamento de 2 ambientes en Venta en Almagro","Departamento","Venta",-34.60273,-58.41435
"202006","CABA","Comuna 5",2,37,37,74000,"USD","2 AMBIENTES IDEAL INVERSIÓN EN ALMAGRO","Departamento","Venta",-34.6037317,-58.4243564
"202006","CABA","Comuna 14",2,42,42,85000,"USD","Departamento de 2 ambientes en Venta en Palermo","Departamento","Venta",-34.5949286492,-58.4232193831
"202006","CABA","Comuna 15",2,66,58,190000,"USD","Departamento de 2 ambientes en Venta en Palermo","Departamento","Venta",-34.5982192139,-58.4300380813
"202006","CABA","Comuna 14",2,43,37,154500,"USD","Departamento de 2 ambientes en Venta en Palermo","Departamento","Venta",-34.5880071,-58.4201224
"202006","CABA","Comuna 13",2,34,33,110000,"USD","VENTA DEPARTAMENTO 2 AMBIENTES EN BELGRANO","Departamento","Venta",-34.5659326,-58.4537776
"202006","CABA","Comuna 14",2,56,51,145000,"USD","Belgrano | Teodoro García 2400 | Dúplex de 2 ambientes Apto Profesional.","Departamento","Venta",-34.5708097,-58.4463742
"202006","CABA","Comuna 10",2,49,40,105000,"USD","Departamento a estrenar 2 Ambientes en venta sobre Av. Juan B. Alberdi - Floresta - USD 105.000.-","Departamento","Venta",-34.6352428,-58.4743757
"202006","CABA","Comuna 2",2,55,51,200000,"USD","Departamento de 2 ambientes en Venta en Recoleta","Departamento","Venta",-34.59625,-58.41399
"202006","CABA","Comuna 3",2,49,45,82584,"USD","VENTA DEPARTAMENTO DE POZO 2 AMB.  EN BALVANERA","Departamento","Venta",-34.6118473,-58.3965419
"202006","CABA","Comuna 15",2,73,41,187272,"USD","Oportunidad","Departamento","Venta",-34.6075947,-58.4457497
"202006","CABA","Comuna 15",2,49,49,129187,"USD","Importante Oportunidad de invertir en proyección de futuro","Departamento","Venta",-34.6075947,-58.4457497
"202006","CABA","Comuna 15",2,52,52,131809,"USD","Excelente oportunidad","Departamento","Venta",-34.6075947,-58.4457497
"202006","CABA","Comuna 6",2,51,45,118000,"USD","Emprendimiento en Construccion en Cid Campeador  - Final de obra en 3 meses","Departamento","Venta",-34.6101211,-58.4509879
"202006","CABA","Comuna 15",2,49,49,126262,"USD","Excelente emprendimiento","Departamento","Venta",-34.6075947,-58.4457497
"202006","CABA","Comuna 10",2,61,53,162500,"USD","Departamento de 2 ambientes en VENTA en Mataderos - USD 162.500","Departamento","Venta",-34.6444174,-58.5007749
"202006","CABA","Comuna 10",2,65,53,147500,"USD","Departamento de 2 ambientes en VENTA  en Mataderos - USD 147.500","Departamento","Venta",-34.6444174,-58.5007749
"202006","CABA","Comuna 1",2,48,43,99000,"USD","Departamento de 2 ambientes en Venta en Monserrat","Departamento","Venta",-34.6084783391,-58.3780949947
"202006","CABA","Comuna 1",2,51,45,142000,"USD","2 ambientes en San Telmo. Con amenities","Departamento","Venta",-34.6243799517,-58.3742535566
"202006","GBA","La Matanza",2,27,27,40000,"USD","Departamento - Tapiales","Departamento","Venta",-34.6981247,-58.51399
"202006","GBA","La Matanza",2,48,48,70000,"USD","Departamento - Ramos Mejia Sur","Departamento","Venta",-34.6530311,-58.5535859
"202006","GBA","San Isidro",2,78,64,225000,"USD","Depto. en VENTA  - Pasionaria 2 amb.  USD 225.000.-","Departamento","Venta",-34.4948079,-58.5164546
"202006","GBA","San Isidro",2,55,50,182000,"USD","Departamento 2 ambientes en venta en Beccar Plaza 1 San Isidro con cochera USD 182000","Departamento","Venta",-34.4639911,-58.5290856
"202006","GBA","San Isidro",2,78,64,225000,"USD","Depto. en VENTA con renta - Pasionaria 2 amb.  USD 225.000.-","Departamento","Venta",-34.4948079,-58.5164546
"202006","CABA","Comuna 14",2,44,35,112000,"USD","Departamento - Barrio Norte","Departamento","Venta",-34.5889054057,-58.4098288497
"202006","GBA","San Fernando",2,50,50,125000,"USD","Departamento - Vict.-B.Centro","Departamento","Venta",-34.4562893,-58.5466236
"202006","CABA","Comuna 1",2,30,30,75000,"USD","Oportunidad 2 amb. Amueblado. Apto Profesional!!!","Departamento","Venta",-34.6051493,-58.3801924
"202006","CABA","Comuna 15",2,46,46,119000,"USD","Departamento de 2 ambientes en Venta en Villa crespo","Departamento","Venta",-34.5959688801,-58.4400177163
"202006","CABA","Comuna 15",2,42,42,64000,"USD","Departamento - Paternal","Departamento","Venta",-34.5979588,-58.4491891
"202006","CABA","Comuna 15",2,90,45,125000,"USD","Departamento de 2 ambientes en Venta en Villa crespo","Departamento","Venta",-34.5900904456,-58.4486783743
"202006","CABA","Comuna 14",2,52,47,139546,"USD","Departamento de 2 ambientes en Venta en Villa crespo","Departamento","Venta",-34.5862630496,-58.4437663903
"202006","CABA","Comuna 15",2,66,58,190000,"USD","Departamento de 2 ambientes en Venta en Villa crespo","Departamento","Venta",-34.5982192139,-58.4300380813
"202006","CABA","Comuna 1",2,67,62,319000,"USD","Departamento 2 ambientes c/cochera al frente en LUMIERE  Puerto Madero","Departamento","Venta",-34.615682195,-58.362778881
"202006","CABA","Comuna 3",2,52,44,100000,"USD","Espectacular 2 amb balcón, parrilla, cochera, pileta, jardín ¡Retasado!","Departamento","Venta",-34.6168734,-58.4053431
"202006","GBA","Vicente López",2,55,44,190000,"USD","Departamento - Olivos-Vias/Maipu","Departamento","Venta",-34.5052088,-58.4933942
"202006","CABA","Comuna 9",2,69,31,79900,"USD","Departamento de dos ambientes con balcón aterrizado!! ESPECTACULAR VISTA PANORÁMICA . OPORTUNIDAD!! - Parque Avellaneda","Departamento","Venta",-34.6458562,-58.4851927
"202006","GBA","General San Martín",2,48,44,87000,"USD","DEPARTAMENTO 2 AMBIENTES EN ZONA CÉNTRICA DE VILLA BALLESTER","Departamento","Venta",-34.547519,-58.5498961
"202006","GBA","La Plata",3,97,95,78000,"USD","47 e/18 y 19, P.H en venta sin expensas. Patio y terraza.","PH","Venta",-34.9238161817,-57.9635987354
"202006","CABA","Comuna 3",3,66,66,150000,"USD","Depto.tipo casa de 3 ambientes en Venta en Balvanera","PH","Venta",-34.6171816,-58.3977189
"202006","CABA","Comuna 3",3,85,69,144000,"USD","PH - Balvanera","PH","Venta",-34.6133547,-58.4048793
"202006","CABA","Comuna 9",3,54,54,80000,"USD","PH - Mataderos","PH","Venta",-34.6576291,-58.509439
"202006","CABA","Comuna 3",3,132,126,234500,"USD","PH 3 / 4 ambientes con entrada independiente sin expensas en Monserrat","PH","Venta",-34.6217046383,-58.3935210357
"202006","GBA","La Matanza",3,56,38,60000,"USD","VENTA PH 3 AMBIENTES SIN EXPENSAS EN RAMOS MEJIA","PH","Venta",-34.6436571,-58.5617791
"202006","GBA","Vicente López",3,165,99,240000,"USD","PH - A ESTRENAR CON DOBLE COCHERA, IMPECABLE!!","PH","Venta",-34.5416757,-58.4987946
"202006","CABA","Comuna 15",3,81,81,159000,"USD","Depto.tipo casa de 3 ambientes en Venta en Parque centenario","PH","Venta",-34.601211464,-58.4485274117
"202006","GBA","La Matanza",3,126,72,160000,"USD","VENTA DUPLEX 3 AMBIENTES CON COCHERA EN RAMOS MEJIA","Casa","Venta",-34.6475028,-58.5515748
"202006","GBA","San Isidro",3,107,107,230000,"USD","Casa - Martinez- HERMOSAS CASITAS INDEPENDIENTES PERO COMUNICADAS CON JARDIN.","Casa","Venta",-34.4924252,-58.5205162
"202006","GBA","Pilar",3,87,65,195000,"USD","Depto. con renta VENTA - LAGOON PILAR - 3 amb. USD 195.000","Departamento","Venta",-34.4111938,-58.848873
"202006","GBA","Pilar",3,87,65,180000,"USD","VENTA con renta en Lagoon Pilar - 3 amb. con vista USD 180.000.-","Departamento","Venta",-34.4111938,-58.848873
"202006","GBA","Pilar",3,98,98,132000,"USD","Departamento 3 amb. en venta en Pilar - Edificio Los Almendros USD 132.000.-","Departamento","Venta",-34.4487569,-58.8745003
"202006","GBA","Pilar",3,91,75,145000,"USD","Departamento - Del Viso","Departamento","Venta",-34.430974225,-58.792278266
"202006","GBA","Pilar",3,96,72,270000,"USD","Departamento en venta en Lagoon Pilar - 3 amb en Edificio AQUA  USD 270.000","Departamento","Venta",-34.4111072,-58.8490348
"202006","GBA","Tigre",3,105,72,240000,"USD","Bajo el precio ! Venta depto 3 amb planta baja con jardin  Portezuelo  Nordelta - Tigre","Departamento","Venta",-34.4026444,-58.6544622
"202006","GBA","Tigre",3,78,78,162000,"USD","Venta duplex 3 amb. con cochera con Renta - Homes 3 Nordelta - Tigre","Departamento","Venta",-34.425832,-58.656778
"202006","GBA","Tigre",3,103,95,338700,"USD","Excelente Departamento 3 ambientes a estrenar, Golf, Tenis, Futbol, Amarras y Spa.","Departamento","Venta",-34.4050954,-58.6242532
"202006","GBA","Tigre",3,132,75,210000,"USD","Departamento en VENTA, 3 AMB.  en Antares, Nordelta USD 215.000","Departamento","Venta",-34.400569,-58.649407
"202006","GBA","Tigre",3,90,85,140000,"USD","Super Oportunidad Departamento 3 ambientes El Reflejo Nordelta","Departamento","Venta",-34.3943316,-58.6505239
"202006","GBA","Tigre",3,95,75,249000,"USD","Venta 2 dorm planta baja con jardín y cochera cub. Portezuelo Nordelta. Tigre","Departamento","Venta",-34.4026444,-58.6544622
"202006","GBA","Tigre",3,130,75,210000,"USD","Depto. en venta en ANTARES 3 amb. con cochera y baulera - Nordelta USD 210.000","Departamento","Venta",-34.400569,-58.649407
"202006","GBA","Tigre",3,105,72,240000,"USD","Depto. en venta 3 amb planta baja con jardin REBAJADO  Portezuelo  Nordelta - Tigre","Departamento","Venta",-34.4026444,-58.6544622
"202006","GBA","Tigre",3,84,77,245000,"USD","VENTA Espectacular Departamento de 3 Ambientes con Cochera en  Miradores de la Bahia","Departamento","Venta",-34.395573,-58.6502182
"202006","GBA","Tigre",3,125,76,320000,"USD","Departamento en venta Marinas de Portezuelo, 3 amb. PB con Jardín USD 320.000.-","Departamento","Venta",-34.4040675,-58.6506282
"202006","GBA","Tigre",3,96,76,195000,"USD","DEPARTAMENTO 3 AMBIENTES EN VENTA EN PUERTO ESCONDIDO NORDELTA The Kiri - U$S195.000","Departamento","Venta",-34.3967647,-58.6476628
"202006","GBA","Tigre",3,228,96,290000,"USD","Departamento  3 ambientes en venta en  La Balconada, Barrio Castaños, Nordelta","Departamento","Venta",-34.3866361,-58.5571624
"202006","GBA","Tigre",3,201,105,349000,"USD","Departamento 3 amb. con terraza en venta en Edificio Vista Bahía  Nordelta","Departamento","Venta",-34.4189088,-58.5907519
"202006","GBA","Ezeiza",3,83,83,99000,"USD","IMPECABLE DEPARTAMENTO 3 AMB CON COCHERA EN BARRIO CERRADO BAMBU RELAX","Departamento","Venta",-34.8661927,-58.507008
"202006","CABA","Comuna 13",3,97,63,224560,"USD","Emprendimiento en Nuñez - Departamento 3 Amb. con Balcón + Patio","Departamento","Venta",-34.5479578,-58.4665217
"202006","CABA","Comuna 5",3,68,60,192000,"USD","Departamento de 3 ambientes en Venta en Almagro","Departamento","Venta",-34.6054973327,-58.4302755236
"202006","CABA","Comuna 5",3,80,75,205000,"USD","Departamento de 3 ambientes en Venta en Almagro","Departamento","Venta",-34.6018060771,-58.4308261623
"202006","CABA","Comuna 15",3,73,65,190000,"USD","Departamento de 3 ambientes en Venta en Almagro norte","Departamento","Venta",-34.6006963,-58.4298039
"202006","CABA","Comuna 5",3,85,57,166500,"USD","Departamento de 3 ambientes en Venta en Almagro","Departamento","Venta",-34.60273,-58.41435
"202006","CABA","Comuna 5",3,68,60,181000,"USD","Departamento de 3 ambientes en Venta en Almagro","Departamento","Venta",-34.6054973327,-58.4302755236
"202006","CABA","Comuna 5",3,68,60,188000,"USD","Departamento de 3 ambientes en Venta en Almagro","Departamento","Venta",-34.6054973327,-58.4302755236
"202006","CABA","Comuna 5",3,52,52,125000,"USD","Departamento de 3 ambientes en Venta en Almagro norte","Departamento","Venta",-34.6024282849,-58.4252948987
"202006","CABA","Comuna 14",3,70,60,220000,"USD","Departamento de 3 ambientes en Venta en Almagro","Departamento","Venta",-34.59769,-58.41937
"202006","CABA","Comuna 14",3,115,77,270000,"USD","Triplex con cohera en el corazón de palermo","Departamento","Venta",-34.584981942,-58.4245897807
"202006","CABA","Comuna 14",3,66,66,190000,"USD","Departamento de 3 ambientes en Venta en Palermo soho","Departamento","Venta",-34.5847947351,-58.4158886934
"202006","CABA","Comuna 14",3,75,63,225000,"USD","Departamento - Palermo","Departamento","Venta",-34.5928441,-58.4131578
"202006","CABA","Comuna 14",3,70,60,220000,"USD","Departamento de 3 ambientes en Venta en Palermo","Departamento","Venta",-34.59769,-58.41937
"202006","CABA","Comuna 2",3,90,82,265000,"USD","Departamento de 3 ambientes en Venta en Palermo","Departamento","Venta",-34.5899051842,-58.4014712986
"202006","GBA","Quilmes",3,113,93,350000,"USD","Departamento - Nuevo Quilmes Qualia 4 amb. con Cochera Doble en Subsuelo","Departamento","Venta",-34.6990192,-58.2880406
"202006","CABA","Comuna 13",3,66,60,210000,"USD","Departamento - Belgrano R","Departamento","Venta",-34.572622,-58.4606109
"202006","CABA","Comuna 13",3,80,66,256000,"USD","Emprendimiento en Belgrano - Departamento 3 Amb. con Balcón y Parrilla","Departamento","Venta",-34.5541458617,-58.4554160111
"202006","CABA","Comuna 10",3,61,57,140000,"USD","VENTA DEPARTAMENTO 3 AMBIENTES EN FLORESTA","Departamento","Venta",-34.633282,-58.4832594
"202006","CABA","Comuna 10",3,88,80,125000,"USD","Departamento de 3 ambientes en Venta en Floresta","Departamento","Venta",-34.6331244322,-58.4762461128
"202006","CABA","Comuna 15",3,68,60,96800,"USD","Departamento de 3 ambientes en Venta en Paternal","Departamento","Venta",-34.5987263,-58.464604
"202006","CABA","Comuna 15",3,80,80,209196,"USD","Importante Oportunidad frente al Cid Campeador, en caballito","Departamento","Venta",-34.6075947,-58.4457497
"202006","CABA","Comuna 6",3,68,65,160000,"USD","Departamento de 3 ambientes en Venta en Caballito","Departamento","Venta",-34.622034515,-58.4435542233
"202006","CABA","Comuna 15",3,110,58,188100,"USD","Departamento de 3 ambientes en Venta en Caballito","Departamento","Venta",-34.6072570523,-58.4430793478
"202006","CABA","Comuna 6",3,65,55,122000,"USD","Depto 3 Amb en Caballito en Av. Alberdi 200 en linda cuadra y buen reciclado","Departamento","Venta",-34.6225654,-58.4315385
"202006","CABA","Comuna 15",3,92,64,195000,"USD","Departamento de 3 ambientes en Venta en Chacarita","Departamento","Venta",-34.5900555,-58.4493062
"202006","CABA","Comuna 10",3,171,98,310000,"USD","Departamento de 3 ambientes con terraza en VENTA en Mataderos - USD 310.000.-","Departamento","Venta",-34.6444174,-58.5007749
"202006","CABA","Comuna 10",3,97,75,205000,"USD","Departamento de 3 ambientes en VENTA DUPLEX en Mataderos - USD 205.000","Departamento","Venta",-34.6444174,-58.5007749
"202006","CABA","Comuna 13",3,89,85,310000,"USD","Excelente 3 ambientes en la MUSA STAR!Totalmente remodelado, al frente!","Departamento","Venta",-34.5822469,-58.4484841
"202006","GBA","San Isidro",3,133,92,399900,"USD","Departamento en venta de 3 amb.   dep. en Pasionaria San Isidro - USD 399.000","Departamento","Venta",-34.4948079,-58.5164546
"202006","CABA","Comuna 14",3,70,60,220000,"USD","Departamento de 3 ambientes en Venta en Barrio norte","Departamento","Venta",-34.59769,-58.41937
"202006","CABA","Comuna 2",3,87,87,268000,"USD","Av Pueyrredon y French","Departamento","Venta",-34.5902414,-58.4005675
"202006","CABA","Comuna 1",3,57,57,133000,"USD","IMPECABLE DEPTO 3 AMB APTO PROF MUY LUMINOSO BAJAS EXPENSAS OPCIONAL AMOBLADO","Departamento","Venta",-34.6065237,-58.3901595
"202006","CABA","Comuna 15",3,90,90,170000,"USD","Departamento de 3 ambientes en Venta en Villa crespo","Departamento","Venta",-34.5979526,-58.43884
"202006","CABA","Comuna 5",3,80,75,205000,"USD","Departamento de 3 ambientes en Venta en Villa crespo","Departamento","Venta",-34.6018060771,-58.4308261623
"202006","CABA","Comuna 15",3,73,65,190000,"USD","Departamento de 3 ambientes en Venta en Villa crespo","Departamento","Venta",-34.6006963,-58.4298039
"202006","CABA","Comuna 15",3,61,51,139999,"USD","Departamento de 3 ambientes en Venta en Villa crespo","Departamento","Venta",-34.5976985478,-58.4438572393
"202006","CABA","Comuna 14",3,85,80,143546,"USD","Departamento de 3 ambientes en Venta en Villa crespo","Departamento","Venta",-34.5862630496,-58.4437663903
"202006","CABA","Comuna 15",3,140,130,340001,"USD","Departamento de 3 ambientes en Venta en Villa crespo","Departamento","Venta",-34.6037853,-58.4342633
"202006","CABA","Comuna 15",3,63,57,149000,"USD","Departamento de 3 ambientes en Venta en Villa crespo","Departamento","Venta",-34.5948581731,-58.4457693611
"202006","CABA","Comuna 1",3,107,92,650000,"USD","Impecable 3 Ambientes en Puerto Madero.","Departamento","Venta",-34.6109734562,-58.3633435603
"202006","CABA","Comuna 1",3,81,73,299900,"USD","Departamento 3 ambientes al contrafrente en Puerto Madero","Departamento","Venta",-34.6173838817,-58.3613050815
"202006","CABA","Comuna 1",3,128,122,620000,"USD","Departamento en venta en Puerto Madero 3 amb. USD 620.000","Departamento","Venta",-34.6219563,-58.3615882
"202006","CABA","Comuna 1",3,128,116,1450000,"USD","Departamento 3 ambientes en venta en Alvear Tower Puerto Madero -USD 1.450.000.-","Departamento","Venta",-34.6122155,-58.3602301
"202006","GBA","Vicente López",3,57,52,145000,"USD","Departamento - Florida Mitre/Este","Departamento","Venta",-34.5335505,-58.4800733
"202006","GBA","Lomas de Zamora",3,77,68,145000,"USD","ALQUILER - DEPTO. 3 AMBIENTES APTO PROF. O VIVIENDA, Lomas de Zamora","Departamento","Venta",-34.7619580161,-58.3993532065
"202006","GBA","Lomas de Zamora",3,80,75,220000,"USD","Departamento - Banfield Este","Departamento","Venta",-34.742978,-58.3930434
"202006","CABA","Comuna 15",3,110,58,188100,"USD","Departamento de 3 ambientes en Venta en Parque centenario","Departamento","Venta",-34.6072570523,-58.4430793478
"202006","GBA","General San Martín",3,60,60,53000,"USD","Departamento - San Andres","Departamento","Venta",-34.5572406,-58.5346206
"202006","CABA","Comuna 13",4,141,105,230000,"USD","PH DEPARTAMENTO PB 4 ambientes Venta coghlan BELGRANO nuñez","PH","Venta",-34.5593037,-58.4695839
"202006","CABA","Comuna 14",4,77,77,239001,"USD","Depto.tipo casa de 4 ambientes en Venta en Palermo","PH","Venta",-34.5949317,-58.4268811
"202006","CABA","Comuna 15",4,183,138,285000,"USD","Excelente PH de 4/5 ambientes - Terraza y Quincho","PH","Venta",-34.5817635,-58.4665277
"202006","CABA","Comuna 15",4,68,68,250000,"USD","Depto.tipo casa de 4 ambientes en Venta en Villa crespo","PH","Venta",-34.6018837897,-58.4342526685
"202006","CABA","Comuna 7",4,69,69,133000,"USD","PH en venta de 4 amb. en Parque Chacabuco - USD 133.000.-","PH","Venta",-34.634499,-58.43002
"202006","GBA","Merlo",4,120,120,95000,"USD","Casa - San Antonio De Padua","Casa","Venta",-34.6655788,-58.7041108
"202006","GBA","Pilar",4,267,267,350000,"USD","Casa en venta o alquiler en La Peregrina","Casa","Venta",-34.4709128693,-58.822702889
"202006","GBA","Pilar",4,169,138,163000,"USD","Casa - San Sebastián","Casa","Venta",-34.3510419,-58.8867448
"202006","GBA","Pilar",4,170,135,163000,"USD","Casa - San Sebastián","Casa","Venta",-34.3510419,-58.8867448
"202006","GBA","Pilar",4,176,144,171000,"USD","Casa - San Sebastián","Casa","Venta",-34.3510419,-58.8867448
"202006","GBA","Pilar",4,166,130,255000,"USD","Casa en venta de 4 dormitorios en Lagoon Pilar - Quántica - USD 255.000.-","Casa","Venta",-34.4111938,-58.848873
"202006","GBA","Tigre",4,351,254,545000,"USD","Venta casa 3 dorm. con dpcia. y escritorio  Bº El Encuentro  Tigre","Casa","Venta",-34.4324531,-58.6722107
"202006","GBA","Tigre",4,180,180,240000,"USD","Venta casa a estrenar 4 amb. y depcia. con baño completo. San Gabriel, Villanueva - Tigre","Casa","Venta",-34.3760372592,-58.6973634847
"202006","GBA","Tigre",4,170,150,255000,"USD","Venta casa 4 amb. con piscina en Vila Marina Villanueva","Casa","Venta",-34.3705020041,-58.6879340083
"202006","GBA","Tigre",4,170,150,255000,"USD","Casa en venta de 3 dorm. con piscina en Vila Marina Villanueva","Casa","Venta",-34.3705020041,-58.6879340083
"202006","GBA","Moreno",4,266,266,385000,"USD","Casa - Banco Provincia De Bs. As.","Casa","Venta",-34.6355913,-58.7925377
"202006","GBA","Moreno",4,660,212,285000,"USD","Se vende casa de 2 plantas en Country Banco Provincia.Vista al arroyo.","Casa","Venta",-34.6021192212,-58.8623352018
"202006","GBA","Escobar",4,124,124,79000,"USD","Casa - 4 Ambientes - Venta - Matheu - Escobar","Casa","Venta",-34.3815187,-58.8236347
"202006","GBA","Escobar",4,166,136,172000,"USD","Casa en Venta 4 Ambientes Barrio El Ensueño","Casa","Venta",-34.366851005,-58.7409350767
"202006","GBA","Quilmes",4,320,320,950000,"USD","Casa 4 ambientes en venta en Nuevo Quilmes","Casa","Venta",-34.6990192,-58.2880406
"202006","GBA","San Miguel",4,434,136,175000,"USD","Venta Casa 4 ambientes a terminar oportunidad jardin Muñiz","Casa","Venta",-34.5558923922,-58.7067200251
"202006","GBA","Tigre",4,112,74,210000,"USD","Departamento en venta en LAGO DEL SENDERO NORDELTA 4 AMB. PB CON DECK USD 210000","Departamento","Venta",-34.4022441,-58.6528774
"202006","GBA","Tigre",4,153,102,300000,"USD","Departamento 4 amb. en venta en POZO, Bahía Nordelta - USD 300.000","Departamento","Venta",-34.3967647,-58.6476628
"202006","GBA","Tigre",4,123,96,240000,"USD","Departamento de 4 amb. en venta en Edificio North Coral Plaza Suites Nordelta USD 240.000","Departamento","Venta",-34.4008097,-58.6524757
"202006","CABA","Comuna 7",4,143,126,230000,"USD","Departamento 4 amb/ C ochera y Dependencia  - Flores","Departamento","Venta",-34.6272376,-58.4665951
"202006","CABA","Comuna 13",4,141,105,230000,"USD","PH DEPARTAMENTO PB 4 ambientes Venta coghlan BELGRANO nuñez","Departamento","Venta",-34.5593037,-58.4695839
"202006","CABA","Comuna 5",4,104,92,261001,"USD","Departamento de 4 ambientes en Venta en Almagro","Departamento","Venta",-34.60258,-58.420206
"202006","CABA","Comuna 5",4,144,118,335000,"USD","Departamento de 4 ambientes en Venta en Almagro","Departamento","Venta",-34.6017989906,-58.4308322237
"202006","CABA","Comuna 5",4,198,175,310000,"USD","Departamento 4 ambientes en venta en Almagro con dependencia cochera y baulera","Departamento","Venta",-34.6038933,-58.4313527
"202006","CABA","Comuna 5",4,93,85,251000,"USD","Departamento de 4 ambientes en Venta en Almagro","Departamento","Venta",-34.6054973327,-58.4302755236
"202006","CABA","Comuna 5",4,85,75,195000,"USD","Departamento  4 ambientes frente balcón Almagro Usd 195.000.-","Departamento","Venta",-34.613297,-58.4280574
"202006","CABA","Comuna 5",4,93,85,265000,"USD","Departamento de 4 ambientes en Venta en Almagro","Departamento","Venta",-34.6054973327,-58.4302755236
"202006","CABA","Comuna 5",4,93,85,256000,"USD","Departamento de 4 ambientes en Venta en Almagro","Departamento","Venta",-34.6054973327,-58.4302755236
"202006","CABA","Comuna 5",4,93,85,260000,"USD","Departamento de 4 ambientes en Venta en Almagro","Departamento","Venta",-34.6054973327,-58.4302755236
"202006","CABA","Comuna 5",4,109,85,273000,"USD","Departamento de 4 ambientes en Venta en Almagro","Departamento","Venta",-34.6054973327,-58.4302755236
"202006","CABA","Comuna 5",4,104,92,261000,"USD","Departamento de 4 ambientes en Venta en Almagro","Departamento","Venta",-34.60258,-58.420206
"202006","CABA","Comuna 14",4,108,88,317550,"USD","Emprendimiento en Palermo - PISO de 4 AMBIENTES C/BALCÓN TERRAZA","Departamento","Venta",-34.5739362497,-58.4408842921
"202006","CABA","Comuna 14",4,150,140,850000,"USD","QUARTIER DEMARÍA - PISO ALTO - VISTA ABIERTA - 2 COCHERAS/FULL AMENITIES","Departamento","Venta",-34.5746022,-58.421631
"202006","CABA","Comuna 14",4,108,102,380000,"USD","Departamento 4 ambientes con dep. - Palermo","Departamento","Venta",-34.5644966,-58.4414304
"202006","CABA","Comuna 14",4,102,91,305000,"USD","Departamento en Venta en Belgrano, 3 dormitorios con dependencia ","Departamento","Venta",-34.5703185151,-58.4411939607
"202006","CABA","Comuna 2",4,127,103,309000,"USD","DEPARTAMENTO 4 AMBIENTES CON COCHERA Y DEPENDENCIA RECOLETA","Departamento","Venta",-34.594753,-58.395816
"202006","CABA","Comuna 2",4,165,141,449000,"USD","Lindisimo piso sobre Galileo.","Departamento","Venta",-34.585647988,-58.3984404111
"202006","CABA","Comuna 6",4,142,100,308000,"USD","Excelente depto tipo PH con Jardin - cochera opcional","Departamento","Venta",-34.630235,-58.449898
"202006","CABA","Comuna 6",4,111,110,195000,"USD","Excelente Departamento - 4 Ambientes con Balcon Frances","Departamento","Venta",-34.6271228,-58.4459805
"202006","CABA","Comuna 10",4,189,125,365000,"USD","Departamento de 4 ambientes en VENTA con terraza en Mataderos - USD 365.000","Departamento","Venta",-34.6444174,-58.5007749
"202006","CABA","Comuna 2",4,130,125,399000,"USD","Espectacular dpto 4 amb con cocina comedor súper amplio ! Cochera incluida","Departamento","Venta",-34.5952325,-58.4041748
"202006","GBA","San Fernando",4,163,128,530000,"USD","Departamento 4 amb en Venta  Om Residence Punta Chica con 2 cocheras","Departamento","Venta",-34.4466125,-58.5314586
"202006","CABA","Comuna 14",4,85,71,139546,"USD","Departamento de 4 ambientes en Venta en Villa crespo","Departamento","Venta",-34.5862630496,-58.4437663903
"202006","CABA","Comuna 15",4,145,135,275000,"USD","Departamento de 4 ambientes en Venta en Villa crespo","Departamento","Venta",-34.6019384444,-58.4354302773
"202006","CABA","Comuna 5",4,93,90,249000,"USD","Departamento de 4 ambientes en Venta en Villa crespo","Departamento","Venta",-34.6017989906,-58.4308322237
"202006","CABA","Comuna 8",4,67,60,45000,"USD","Departamento - Villa Lugano","Departamento","Venta",-34.6783903,-58.4916184
"202006","CABA","Comuna 1",4,152,141,1688000,"USD","Departamento 3 ambientes con dependencia en venta en Alvear Tower Puerto Madero - USD 1.688.000.-","Departamento","Venta",-34.6122155,-58.3602301
"202006","CABA","Comuna 5",5,60,60,125000,"USD","PH 5 amb. en venta sobre calle Bulnes 300 Barrio Almagro USD 125.000.-","PH","Venta",-34.607411,-58.4187724
"202006","CABA","Comuna 13",5,221,176,299000,"USD","PH - Colegiales","PH","Venta",-34.5763794,-58.4610878
"202006","GBA","Tigre",5,343,310,580000,"USD","Casa en ALQUILER y VENTA en EL ENCUENTRO - Alquiler $75.000 / Venta USD 580.000.-","Casa","Venta",-34.4324275,-58.6723292
"202006","GBA","Tigre",5,300,220,495000,"USD","Casa en venta en Barrancas del Lago Nordelta - Casa Pulte USD 495.000","Casa","Venta",-34.4226327,-58.6587913
"202006","GBA","Escobar",5,346,257,490000,"USD","Casa al agua en VENTA con RENTA AL AGUA en SAN BENITO VILLANUEVA TIGRE USD 490.000","Casa","Venta",-34.3796301,-58.7183124
"202006","GBA","Tigre",5,150,150,185000,"USD","VENTA  Tríplex de 3 Dorm y Playroom en Condominio Gral Pacheco","Casa","Venta",-34.4575671,-58.6268454
"202006","GBA","Tigre",5,240,240,415000,"USD","Venta casa 5 amb. c/depcia. en Santa María de Tigre - Rincón de Milberg Tigre","Casa","Venta",-34.4000632321,-58.6399031942
"202006","GBA","Escobar",5,290,235,399999,"USD","Casa en venta en Barrio San Marco Villanueva - USD 400.000","Casa","Venta",-34.3895838,-58.7201261
"202006","GBA","Vicente López",5,270,270,599000,"USD","CASA EN VENTA EN TIGRE CENTRO - USD 599.000","Casa","Venta",-34.5427231,-58.4956059
"202006","GBA","Moreno",5,800,216,75000,"USD","VENTA CASA 5 AMBIENTES EN LA REJA CON LOTE PROPIO 800 m2 - OPORTUNIDAD!","Casa","Venta",-34.638955,-58.8291695
"202006","CABA","Comuna 13",5,159,149,368000,"USD","Departamento de 5 ambientes al frente en Belgrano","Departamento","Venta",-34.5604586843,-58.4526094423
"202006","CABA","Comuna 10",5,100,97,160000,"USD","VENDO MUY BUEN DEPARTAMENTO 5 AMBIENTES EN FLORESTA","Departamento","Venta",-34.634932,-58.4809876
"202006","CABA","Comuna 12",5,101,94,285000,"USD","Departamento - Nuñez","Departamento","Venta",-34.5496615,-58.4713407
"202006","CABA","Comuna 12",5,88,80,280000,"USD","Departamento 5 ambientes  con cochera venta  Nuñez SAAVEDRA","Departamento","Venta",-34.55209,-58.472216
"202006","CABA","Comuna 1",5,263,223,520000,"USD","Departamento - San Telmo","Departamento","Venta",-34.6233462,-58.3785193
"202006","CABA","Comuna 1",5,161,155,295000,"USD","ELEGANTE SEMIPISO EN UN ANTIGUO EDIFICIO DE CATEGORIA.","Departamento","Venta",-34.6065354,-58.3854384
"202006","CABA","Comuna 1",5,191,186,1500000,"USD","Departamento en venta en El Faro Puerto Madero Capital Federal USD 1500000.-","Departamento","Venta",-34.605833,-58.363611
"202006","GBA","Pilar",6,291,291,350000,"USD","GB PROPIEDADES- OPORTUNIDAD EN AYRES PLAZA, EXCELENTE CASA!","Casa","Venta",-34.4382679,-58.8376483
"202006","GBA","Tigre",6,730,550,1100000,"USD","Casa en VENTA con RENTA USD 1.100.000.- LOTE AL AGUA.","Casa","Venta",-34.4469643,-58.6311428
"202006","GBA","Tigre",6,497,366,980000,"USD","Venta de excelente casa 6 amb. a la laguna - Santa Barbara - Nordelta - Tigre","Casa","Venta",-34.4458519027,-58.6334347267
"202006","GBA","Tigre",6,162,145,230000,"USD","VENTA CON RENTA Casa de 3 Dormitorios en Barrio Cerrado Lomas de Benavídez","Casa","Venta",-34.4177904,-58.7088485
"202006","GBA","Tigre",6,400,400,1280000,"USD","Casa en venta con renta en Barrio El Golf Nordelta USD 1.280.000","Casa","Venta",-34.497881,-58.645092
"202006","GBA","Tigre",6,300,300,530000,"USD","Venta con renta","Casa","Venta",-34.410858,-58.6699647
"202006","GBA","Tigre",6,280,255,620000,"USD","Casa al lago en venta en Barrio El Encuentro USD 620000 Bancalari Nordelta","Casa","Venta",-34.439198,-58.6815257
"202006","GBA","José C. Paz",6,150,150,85000,"USD","Venta Casa A reciclar sobre lote de 2.144 m² / Loteo Tierra Linda - Barrio Yei Pora - Jose C Paz","Casa","Venta",-34.4903638,-58.7950621
"202006","GBA","San Fernando",6,664,293,648000,"USD","Casa en venta con Renta en La Damasia en San Fernando USD 648.000.-","Casa","Venta",-34.4590316,-58.5736701
"202006","CABA","Comuna 12",6,310,310,970000,"USD","Depto Full Amenities Complejo Tronador 6 amb, 310 m2, 2 coch, dep,ofi,play","Departamento","Venta",-34.5594394,-58.482434
"202006","CABA","Comuna 1",6,236,218,685000,"USD","Departamento duplex  6 ambientes con cochera en Puerto Madero","Departamento","Venta",-34.617101339,-58.3610690471
"202006","GBA","Vicente López",6,250,250,165000,"USD","Edificio en Venta en MUNRO - USD 165.000.-","Departamento","Venta",-34.5304233,-58.5243501
"202006","GBA","Tigre",7,222,200,445000,"USD","VENTA  Casa a la Laguna de 3 Dormitorios en San Francisco, Villanueva","Casa","Venta",-34.3896865,-58.7033254
"202006","GBA","Vicente López",7,550,400,850000,"USD","ESPECTACULAR  CASA EN GASPAR CAMPOS - LA MEJOR CUADRA DE VICENTE LOPEZ!","Casa","Venta",-34.5266023,-58.4766332
"202006","GBA","Tigre",10,391,391,650000,"USD","VENTA de Casa de Dormitorios en Talar Del Lago","Casa","Venta",-34.448304,-58.643737
"202007","GBA","Tigre",2,108,69,20000,"ARS","DEPARTAMENTO EN ALQUILER EN NORDELTA 2 AMB CON TERRAZA Y JACUZZI","Departamento","Alquiler",-34.394372372,-58.6492457307
"202007","GBA","Tigre",2,57,45,27500,"ARS","2 ambientes con cochera y baulera - Vista al Lago Central","Departamento","Alquiler",-34.4090982,-58.631293
"202007","CABA","Comuna 14",1,45,40,23000,"ARS","Departamento en Alquiler con Balcón y Amenities","Departamento","Alquiler",-34.592742,-58.427492
"202007","CABA","Comuna 14",2,48,48,30000,"ARS","Botánico - 2 ambientes amueblado con vista a Boulevard Cerviño","Departamento","Alquiler",-34.579139434,-58.4128868042
"202007","CABA","Comuna 14",2,42,37,26000,"ARS","Departamento - Palermo","Departamento","Alquiler",-34.5957084,-58.4158714
"202007","CABA","Comuna 15",2,41,38,21000,"ARS","Departamento de 2 ambientes en Alquiler en Palermo","Departamento","Alquiler",-34.5985631833,-58.4302622745
"202007","GBA","San Isidro",2,49,42,27000,"ARS","Departamento - Mart.-Vias/Santa Fe","Departamento","Alquiler",-34.4892018,-58.4979512
"202007","CABA","Comuna 15",2,35,33,19000,"ARS","Departamento de 2 ambientes en Alquiler en Villa crespo","Departamento","Alquiler",-34.6037071102,-58.4420561247
"202007","CABA","Comuna 15",2,43,41,21000,"ARS","Departamento 2amb en alquiler -la mejor ubicacion!","Departamento","Alquiler",-34.604554,-58.457688
"202007","CABA","Comuna 10",1,44,39,16000,"ARS","Monoambiente super Luminoso!  Villa Real","Departamento","Alquiler",-34.623166,-58.511821
"202007","CABA","Comuna 1",1,35,30,15000,"ARS","Av Juan de Garay 1400 Constitucion 1amb divisible a estr balcon $ 15.000.","Departamento","Alquiler",-34.6271827,-58.3855984
"202007","CABA","Comuna 12",2,45,45,20000,"ARS","DEPARTAMENTO DE 2 AMBIENTES EN ALQUILER VILLA URQUIZA","Departamento","Alquiler",-34.5772218,-58.4781751
"202007","CABA","Comuna 12",2,43,43,18500,"ARS","2 AMB","Departamento","Alquiler",-34.5753987,-58.4849266
"202007","GBA","Vicente López",2,77,65,50000,"ARS","Departamento 2 Ambientes Torre Horizon Alquiler Balcón + Amenities + Cochera + Amoblado - Vicente Lopez","Departamento","Alquiler",-34.5105515,-58.4963913
"202007","GBA","Vicente López",2,61,61,23500,"ARS","Alquiler Departamento a una cuadra de Maipu Vicente Lopez!","Departamento","Alquiler",-34.5360125,-58.47895
"202007","CABA","Comuna 12",1,38,35,22500,"ARS","Alquiler departamento Villa Pueyrredon","Departamento","Alquiler",-34.5824,-58.4956
"202007","GBA","Escobar",3,100,80,19500,"ARS","Casa - Jardines de Escobar","Casa","Alquiler",-34.3596848,-58.8047487
"202007","GBA","Tigre",3,116,94,95000,"ARS","MODERNO DEPARTAMENTO EN EL YOO DE NORDELTA - OPORTUNIDAD DE ALQUILER","Departamento","Alquiler",-34.4041807,-58.6483889
"202007","GBA","Lanús",3,55,55,19900,"ARS","Departamento - Lanús Este","Departamento","Alquiler",-34.7090446,-58.3903963
"202007","CABA","Comuna 5",3,60,55,26000,"ARS","Departamento de 3 ambientes en Alquiler en Almagro","Departamento","Alquiler",-34.60586,-58.415825
"202007","CABA","Comuna 14",3,120,111,180000,"ARS","Quantum Cerviño 3 amb mas dep. 120 mts . Cochera y Baulera . Amenities","Departamento","Alquiler",-34.5758212,-58.422374
"202007","CABA","Comuna 14",3,60,56,27000,"ARS","Departamento de 3 ambientes en Alquiler en Palermo","Departamento","Alquiler",-34.5779910794,-58.4277246222
"202007","CABA","Comuna 14",3,75,75,44900,"ARS","ALQUILER DEPARTAMENTO 3 AMBIENTES ALTO PALERMO","Departamento","Alquiler",-34.5894728,-58.4102582
"202007","CABA","Comuna 13",3,79,69,40000,"ARS","11 de Septiembre 2800","Departamento","Alquiler",-34.5522487,-58.4565671
"202007","GBA","La Plata",3,85,80,21000,"ARS","Departamento - Microcentro","Departamento","Alquiler",-34.9221662279,-57.9440814089
"202007","GBA","San Isidro",3,100,92,40000,"ARS","Departamento en Dúplex en Alquiler, ubicado en Barrio Parque Aguirre, Acassuso.","Departamento","Alquiler",-34.4738837,-58.5033689
"202007","GBA","San Isidro",3,84,74,40000,"ARS","Depto ALQUILER Pasionaria Martinez 3 Amb 74 m2 Cub","Departamento","Alquiler",-34.50107,-58.522794
"202007","GBA","Tres de Febrero",3,60,40,18000,"ARS","DEPARTAMENTO 3 AMB C/PATIO VILLA BOSCH sin expensas","Departamento","Alquiler",-34.5826608,-58.5808949
"202007","GBA","Pilar",4,130,130,48000,"ARS","Susana Aravena Propiedades-Excelente casa en Alquiler","Casa","Alquiler",-34.43894,-58.926193
"202007","GBA","San Isidro",4,200,155,100000,"ARS","Divina casa en Beccar, 3 dormitorios, ALQUILER","Casa","Alquiler",-34.464449,-58.530679
"202007","GBA","Esteban Echeverría",5,420,320,55000,"ARS","CASA EN ALQUILER MONTE GRANDE","Casa","Alquiler",-34.811082,-58.477919
"202007","GBA","General San Martín",4,235,80,37000,"ARS","CASA 4 AMB. EN ALQUILER- VILLA BALLESTER","Casa","Alquiler",-34.5492357,-58.5588195
"202007","CABA","Comuna 6",4,75,73,30000,"ARS","ALQUILER 4 AMBIENTES BAJAS EXPENSAS  -  FLORES","Departamento","Alquiler",-34.619375,-58.456956
"202007","CABA","Comuna 14",4,75,68,40000,"ARS","Alquiler departamento 4 ambientes Palermo","Departamento","Alquiler",-34.5955,-58.4264
"202007","GBA","San Isidro",4,135,133,49000,"ARS","Departamento - S.Isi.-Centro Hermoso triplex de 130 mts con Únicas Vistas 4 ambientes","Departamento","Alquiler",-34.4705802,-58.5144355
"202007","CABA","Comuna 14",2,57,57,230000,"USD","Depto.tipo casa de 2 ambientes en Venta en Palermo","PH","Venta",-34.5915781324,-58.4266785984
"202007","CABA","Comuna 12",2,56,56,95000,"USD","Excelente PH 2 ambientes con dependencia - sin expensa-  NO CUENTA CON PATIO","PH","Venta",-34.5628094,-58.4767578
"202007","GBA","La Plata",2,70,32,42000,"USD","Departamento 1 dormitorio con patio en La Plata","PH","Venta",-34.921391,-57.926034
"202007","CABA","Comuna 3",2,38,34,78999,"USD","Departamento de 2 ambientes en Venta en Once","Departamento","Venta",-34.6086162,-58.4031766
"202007","GBA","Pilar",3,54,54,150000,"USD","MARIANO ACOSTA 2000","Departamento","Venta",-34.4599752,-58.855607
"202007","GBA","Pilar",2,77,42,89000,"USD","DEPARTAMENTO 2 AMBIENTES CON BALCON PILAR CENTRO","Departamento","Venta",-34.458747,-58.919914
"202007","GBA","Tigre",2,72,59,150000,"USD","Departamento 2 ambientes - Cochera - Yoo Nordelta","Departamento","Venta",-34.404148,-58.649139
"202007","CABA","Comuna 7",2,61,47,89900,"USD","Venta de departamento en Flores","Departamento","Venta",-34.6285185,-58.4658766
"202007","GBA","Morón",1,27,24,46000,"USD","Departamento - Haedo Sur","Departamento","Venta",-34.6480661,-58.5983134
"202007","CABA","Comuna 13",3,108,80,270000,"USD","Departamento 2 ambientes en Nuñez con jardin","Departamento","Venta",-34.537948,-58.467023
"202007","CABA","Comuna 13",2,38,38,97000,"USD","Dto en venta 2 amb 1/2 Nuñez","Departamento","Venta",-34.547135,-58.467862
"202007","CABA","Comuna 13",2,47,43,97400,"USD","POZO OBRA  2 AMBIENTES - COCHERA OPCIONAL - NUÑEZ","Departamento","Venta",-34.542736,-58.468587
"202007","CABA","Comuna 13",2,61,50,150000,"USD","POZO OBRA  2 AMBIENTES - COCHERA OPCIONAL - NUÑEZ","Departamento","Venta",-34.542736,-58.468587
"202007","CABA","Comuna 5",2,46,42,174447,"USD","Departamento de 2 ambientes en Venta en Almagro","Departamento","Venta",-34.60381,-58.41797
"202007","CABA","Comuna 5",1,44,44,80000,"USD","MONOAMBIENTE CON BALCON - ALMAGRO","Departamento","Venta",-34.6014654,-58.424287
"202007","CABA","Comuna 15",2,31,31,70000,"USD","Departamento de 2 ambientes en Venta en Almagro","Departamento","Venta",-34.6082460187,-58.4442617667
"202007","CABA","Comuna 5",2,52,48,178000,"USD","Departamento de 2 ambientes en Venta en Almagro","Departamento","Venta",-34.608248,-58.421008
"202007","CABA","Comuna 2",2,44,41,107000,"USD","Departamento de 2 ambientes en Venta en Almagro","Departamento","Venta",-34.5990735481,-58.4133256018
"202007","CABA","Comuna 5",2,60,54,110000,"USD","Super departamento en Almagro","Departamento","Venta",-34.614365,-58.415279
"202007","CABA","Comuna 5",2,41,41,95000,"USD","Departamento de 2 ambientes en Venta en Almagro norte","Departamento","Venta",-34.60218,-58.4224
"202007","CABA","Comuna 9",2,48,45,130000,"USD","EXPLÉNDIDO DUPLEX sobre avenida -- Muy liminoso --moderno","Departamento","Venta",-34.640393046,-58.5136436423
"202007","CABA","Comuna 14",2,63,54,293896,"USD","2 AMBIENTES EN SUITE CON TOILETTE - QUALE SPA BOTANICO PALERMO SOHO - EMPRENDIMIENTO PREMIUM EN POZO - VENTA","Departamento","Venta",-34.5830221343,-58.420678764
"202007","CABA","Comuna 14",1,70,32,130000,"USD","Departamento - Palermo Piso 10 A","Departamento","Venta",-34.5910046,-58.4254921
"202007","CABA","Comuna 14",2,54,48,285000,"USD","Espectacular 2 ambientes de categoria con cochera Piso Muy alto Vista  Rio en Venta en Torre Palermo Uno","Departamento","Venta",-34.5818698,-58.424024
"202007","CABA","Comuna 14",2,46,42,128000,"USD","Departamento de 2 ambientes en Venta en Palermo soho","Departamento","Venta",-34.59392,-58.42964
"202007","CABA","Comuna 2",2,44,41,107000,"USD","Departamento de 2 ambientes en Venta en Palermo","Departamento","Venta",-34.5990735481,-58.4133256018
"202007","CABA","Comuna 14",2,45,40,185000,"USD","Departamento de 2 ambientes en Venta en Palermo","Departamento","Venta",-34.57972,-58.43413
"202007","CABA","Comuna 14",2,50,34,130000,"USD","Departamento - Palermo Piso 10 C","Departamento","Venta",-34.5910046,-58.4254921
"202007","CABA","Comuna 14",2,35,32,98000,"USD","PALERMO 2 AMBIENTES FRENTE CON BALCON","Departamento","Venta",-34.597032,-58.415748
"202007","CABA","Comuna 14",2,60,55,277569,"USD","2 AMBIENTES EN SUITE CON TOILETTE - QUALE SPA BOTANICO PALERMO SOHO - EMPRENDIMIENTO PREMIUM EN POZO - VENTA","Departamento","Venta",-34.5830221343,-58.420678764
"202007","CABA","Comuna 14",2,59,54,195000,"USD","Departamento de 2 ambientes en Venta en Palermo","Departamento","Venta",-34.5895017991,-58.4224567078
"202007","CABA","Comuna 14",1,61,27,115000,"USD","Departamento - Palermo Piso 10 B","Departamento","Venta",-34.5910046,-58.4254921
"202007","CABA","Comuna 14",2,62,57,289554,"USD","2 AMBIENTES EN SUITE CON TOILETTE - QUALE SPA BOTANICO PALERMO SOHO - EMPRENDIMIENTO PREMIUM EN POZO -","Departamento","Venta",-34.5830221343,-58.420678764
"202007","CABA","Comuna 13",2,66,50,249850,"USD","VENTA DEPARTAMENTO 2 AMBIENTES TERRAZA BELGRANO","Departamento","Venta",-34.554356,-58.458076
"202007","CABA","Comuna 10",2,33,33,72000,"USD","Departamento 2 ambientes en Floresta","Departamento","Venta",-34.637269,-58.484881
"202007","GBA","La Plata",2,46,40,60000,"USD","Departamento un dormitorio en Venta, La Plata","Departamento","Venta",-34.927249,-57.954812
"202007","CABA","Comuna 15",2,43,43,85000,"USD","Departamento de 2 ambientes en Venta en Paternal","Departamento","Venta",-34.6036240733,-58.4666636826
"202007","CABA","Comuna 2",2,40,40,119000,"USD","VENTA DEPARTAMENTO RECOLETA","Departamento","Venta",-34.5867778,-58.3983676
"202007","CABA","Comuna 6",2,49,38,118000,"USD","Departamento de 2 ambientes en Venta en Caballito","Departamento","Venta",-34.613245,-58.440919
"202007","CABA","Comuna 5",1,40,37,76000,"USD","Monoambiente balcón- En pozo .Financiación","Departamento","Venta",-34.60562,-58.431138
"202007","CABA","Comuna 6",2,38,36,89000,"USD","Departamento de 2 ambientes en Venta en Caballito","Departamento","Venta",-34.6201715716,-58.4539522372
"202007","CABA","Comuna 6",2,38,36,89000,"USD","Departamento de 2 ambientes en Venta en Caballito norte","Departamento","Venta",-34.6201715716,-58.4539522372
"202007","CABA","Comuna 15",2,53,41,75000,"USD","Departamento de 2 ambientes en Venta en Chacarita","Departamento","Venta",-34.5955966314,-58.4477355791
"202007","GBA","La Matanza",1,43,43,65000,"USD","DEPARTAMENTO MONOAMBIENTE  SAN JUSTO CENTRO 43 M2","Departamento","Venta",-34.674711,-58.557889
"202007","GBA","La Matanza",2,51,51,79000,"USD","DEPARTAMENTO 2 AMB. SAN JUSTO CENTRO 51 M2","Departamento","Venta",-34.680329,-58.553436
"202007","CABA","Comuna 10",2,50,46,94900,"USD","DEPARTAMENTO 2 AMBIENTES VENTA - VILLA LURO!","Departamento","Venta",-34.639232,-58.499219
"202007","GBA","Berazategui",2,55,55,125000,"USD","Departamento - Berazategui","Departamento","Venta",-34.7583741,-58.2137133
"202007","CABA","Comuna 2",2,44,41,107000,"USD","Departamento de 2 ambientes en Venta en Barrio norte","Departamento","Venta",-34.5990735481,-58.4133256018
"202007","CABA","Comuna 10",2,54,45,148000,"USD","OPORTUNIDAD 2 AMBIENTES A ESTRENAR","Departamento","Venta",-34.6252005,-58.5047513
"202007","CABA","Comuna 15",2,53,41,75000,"USD","Departamento de 2 ambientes en Venta en Villa crespo","Departamento","Venta",-34.5955966314,-58.4477355791
"202007","CABA","Comuna 15",2,37,37,132093,"USD","Departamento de 2 ambientes en Venta en Villa crespo","Departamento","Venta",-34.5977603,-58.4408726
"202007","CABA","Comuna 15",1,10,10,25000,"USD","Garage - Cochera Descubierta en Villa Crespo","Departamento","Venta",-34.603304,-58.455466
"202007","CABA","Comuna 15",2,39,39,63000,"USD","Departamento de 2 ambientes en Venta en Villa crespo","Departamento","Venta",-34.597101,-58.437714
"202007","CABA","Comuna 11",2,48,40,87000,"USD","Departamento 2 ambientes 2 balcones Villa Devoto","Departamento","Venta",-34.590809,-58.5162
"202007","CABA","Comuna 11",2,66,49,139900,"USD","VENTA DEPTO 2 AMBIENTES  BALCON TERRAZA DEVOTO","Departamento","Venta",-34.609237,-58.502897
"202007","CABA","Comuna 12",2,100,87,164200,"USD","POZO 3 AMBIENTES COCHERA OPCIONAL - VILLA URQUIZA","Departamento","Venta",-34.580818,-58.491051
"202007","CABA","Comuna 12",2,70,50,160000,"USD","DEPARTAMENTO 2 AMBIENTES - VILLA URQUIZA","Departamento","Venta",-34.5699535,-58.4883933
"202007","CABA","Comuna 12",2,100,87,156300,"USD","POZO 3 AMBIENTES COCHERA OPCIONAL - VILLA URQUIZA","Departamento","Venta",-34.580818,-58.491051
"202007","CABA","Comuna 12",2,52,47,91500,"USD","POZO 2 AMBIENTES -COCHERA OPCIONAL - VILLA URQUIZA","Departamento","Venta",-34.580818,-58.491051
"202007","CABA","Comuna 12",2,52,47,90600,"USD","POZO 2 AMBIENTES -COCHERA OPCIONAL - VILLA URQUIZA","Departamento","Venta",-34.580818,-58.491051
"202007","GBA","Vicente López",1,41,39,98000,"USD","Venta Departamento con COCHERA a una cuadra de Maipu Vicente Lopez!","Departamento","Venta",-34.5360125,-58.47895
"202007","GBA","Morón",3,200,85,85000,"USD","CASA PH 3 AMBIENTES","PH","Venta",-34.6529935,-58.6254526
"202007","CABA","Comuna 5",3,55,55,138000,"USD","Depto.tipo casa de 3 ambientes en Venta en Almagro norte","PH","Venta",-34.60864,-58.42078
"202007","CABA","Comuna 11",3,120,102,106000,"USD","PH 3 amb. con garaje - Venta - Floresta - CABA.","PH","Venta",-34.62302,-58.486383
"202007","CABA","Comuna 12",3,92,65,90000,"USD","SAVEEDRA PH primer piso 3 ambientes con patio S/EX","PH","Venta",-34.54383,-58.481641
"202007","CABA","Comuna 3",3,95,73,155000,"USD","VENTA PH DEPTO 3 AMBIENTES TERRAZA BALVANERA CABA","PH","Venta",-34.605173,-58.396791
"202007","CABA","Comuna 14",3,90,90,225000,"USD","Depto.tipo casa de 3 ambientes en Venta en Chacarita","PH","Venta",-34.5853302411,-58.4443150666
"202007","GBA","San Isidro",3,148,85,170000,"USD","VENTA CASA 3 AMB. CON COCHERA Y PATIO BOULOGNE","PH","Venta",-34.510618,-58.572191
"202007","CABA","Comuna 11",3,103,75,229000,"USD","PH EN VENTA TRES AMBIENTES CON COCHERA DEVOTO","PH","Venta",-34.614384,-58.519939
"202007","CABA","Comuna 15",3,71,65,180000,"USD","Ph 3 ambientes con patio - Villa Urquiza","PH","Venta",-34.580021,-58.47493
"202007","CABA","Comuna 4",3,134,67,79900,"USD","3 Ambientes PH a reciclar + terraza propia Parque Chacabuco","PH","Venta",-34.6444812,-58.4318833
"202007","CABA","Comuna 12",3,70,54,150000,"USD","PH 3 ambientes en venta - Villa Pueyrredon","PH","Venta",-34.5896191,-58.500293
"202007","GBA","Tigre",3,160,160,280000,"USD","Casa en venta en Tigre","Casa","Venta",-34.41458,-58.585955
"202007","GBA","Tigre",3,974,70,39000,"USD","OPORTUNIDAD. Casa 3 ambientes en Delta - Tigre","Casa","Venta",-34.397813,-58.573507
"202007","GBA","Quilmes",3,219,127,164000,"USD","VENTA CASA CON PISCINA Y GARAGE EN QUILMES","Casa","Venta",-34.730891,-58.239255
"202007","GBA","La Plata",3,125,125,150000,"USD","Casa - Los Hornos","Casa","Venta",-34.9651014987,-57.9744415157
"202007","GBA","Tres de Febrero",3,94,84,95000,"USD","VENTA CASA 3 AMBIENTES ZONA OESTE CON BUEN ACCESO","Casa","Venta",-34.600888,-58.541133
"202007","CABA","Comuna 2",3,70,66,160000,"USD","Venta de departamento de 3 ambientes a metros de la Facultad de Medicina de la UBA","Departamento","Venta",-34.5995248,-58.4015873
"202007","CABA","Comuna 3",3,54,54,135000,"USD","Departamento de 3 ambientes en Venta en Once","Departamento","Venta",-34.6038554905,-58.4056714925
"202007","GBA","Pilar",3,67,67,180000,"USD","MARIANO ACOSTA 2000","Departamento","Venta",-34.4599752,-58.855607
"202007","GBA","Tigre",3,116,94,350000,"USD","BLANCO PROPIEDADES - MODERNO Y EXCLUSIVO DEPARTAMENTO EN YOO NORDELTA","Departamento","Venta",-34.4041807,-58.6483889
"202007","CABA","Comuna 7",3,51,51,92000,"USD","DEPARTAMENTO 3 AMBIENTES EN FLORES FRENTE","Departamento","Venta",-34.627858,-58.465397
"202007","CABA","Comuna 13",3,56,56,119000,"USD","3 Amb en venta NUÑEZ! Piso 9° VISTA y Mucha Luz","Departamento","Venta",-34.538977,-58.470185
"202007","CABA","Comuna 5",3,66,62,135000,"USD","AMPLIO TRES AMB CON COCHERA EN ALMAGRO","Departamento","Venta",-34.6091662,-58.4147728
"202007","CABA","Comuna 5",3,67,55,125000,"USD","Departamento de 3 ambientes en Venta en Almagro","Departamento","Venta",-34.603746694,-58.418973941
"202007","CABA","Comuna 5",3,160,80,230000,"USD","Departamento de 3 ambientes en Venta en Almagro","Departamento","Venta",-34.6033217,-58.4193994
"202007","CABA","Comuna 3",3,54,54,135000,"USD","Departamento de 3 ambientes en Venta en Almagro","Departamento","Venta",-34.6038554905,-58.4056714925
"202007","CABA","Comuna 14",3,62,58,190000,"USD","Departamento de 3 ambientes en Venta en Palermo","Departamento","Venta",-34.5840546037,-58.4247443984
"202007","CABA","Comuna 14",3,90,90,233001,"USD","Departamento de 3 ambientes en Venta en Palermo","Departamento","Venta",-34.5946538,-58.4143368
"202007","CABA","Comuna 2",4,65,61,240000,"USD","EXCELENTE DEPTO LUMINOSO AL FRENTE C/BALCON  APTO PROFESIONAL ACTUALMENTE ESTUDIO JURÍDICO","Departamento","Venta",-34.5944502625,-58.4132815875
"202007","CABA","Comuna 14",3,87,83,498000,"USD","DEPARTAMENTO con COCHERA y BAULERA EN VENTA EN TORRE PALERMO","Departamento","Venta",-34.5905216,-58.4111009
"202007","CABA","Comuna 14",3,83,78,379637,"USD","3 AMBIENTES CON DORMITORIO EN SUITE - QUALE SPA BOTANICO PALERMO SOHO - EMPRENDIMIENTO PREMIUM EN POZO - VENTA","Departamento","Venta",-34.5830635,-58.4208232
"202007","CABA","Comuna 14",3,62,58,190000,"USD","Departamento de 3 ambientes en Venta en Palermo soho","Departamento","Venta",-34.5840546037,-58.4247443984
"202007","CABA","Comuna 14",3,83,78,385331,"USD","3 AMBIENTES CON DORMITORIO EN SUITE - QUALE SPA BOTANICO PALERMO SOHO - EMPRENDIMIENTO PREMIUM EN POZO - VENTA","Departamento","Venta",-34.5830635,-58.4208232
"202007","CABA","Comuna 14",3,56,52,149000,"USD","Departamento de 3 ambientes en Venta en Palermo soho","Departamento","Venta",-34.59137,-58.42222
"202007","CABA","Comuna 14",3,73,57,289000,"USD","Departamento de 3 ambientes en Venta en Palermo","Departamento","Venta",-34.5806225,-58.41111
"202007","CABA","Comuna 13",3,70,68,198000,"USD","DEPTO 3 AMB.  MUY LUMINOSOS C/COCHERA FIJA CUBIERTA Y BAULERA!!","Departamento","Venta",-34.5636752,-58.4652351
"202007","CABA","Comuna 13",3,79,66,314900,"USD","Departamento VENTA 3 AMB Belgrano c/Cochera","Departamento","Venta",-34.563005,-58.453674
"202007","GBA","La Plata",3,54,54,115000,"USD","Departamento - La Plata","Departamento","Venta",-34.912013978,-57.9454117846
"202007","CABA","Comuna 2",4,100,100,180000,"USD","Departamento 4 ambientes + Dep + guardacoches","Departamento","Venta",-34.596316,-58.401939
"202007","CABA","Comuna 2",3,137,122,355000,"USD","Departamento - Recoleta","Departamento","Venta",-34.5950282,-58.3973789
"202007","CABA","Comuna 2",3,70,63,140000,"USD","3 AMBIENTES CON PATIO EN RECOLETA","Departamento","Venta",-34.6001755891,-58.3915899169
"202007","CABA","Comuna 12",3,66,62,190000,"USD","VENTA DEPARTAMENTO 3 AMBIENTES EN SAAVEDRA","Departamento","Venta",-34.5548,-58.4876
"202007","CABA","Comuna 3",3,54,54,135000,"USD","Departamento de 3 ambientes en Venta en Balvanera","Departamento","Venta",-34.6038554905,-58.4056714925
"202007","CABA","Comuna 6",3,79,74,280000,"USD","VENTA DEPARTAMENTO 3 AMB  FULL AMENITIES CABALLITO","Departamento","Venta",-34.622632,-58.439841
"202007","CABA","Comuna 6",3,55,51,155000,"USD","Depto 3 amb moderno en la mejor zona de caballito","Departamento","Venta",-34.629023,-58.449808
"202007","CABA","Comuna 1",3,50,50,100000,"USD","Venta de departamento de tres ambientes a reciclar en San Telmo","Departamento","Venta",-34.6197313,-58.3771874
"202007","CABA","Comuna 12",3,69,62,210000,"USD","DEPARTAMENTO 3 AMBIENTES - AGRONOMIA","Departamento","Venta",-34.5900547,-58.4951314
"202007","CABA","Comuna 13",3,80,70,250000,"USD","VENTA DEPARTAMENTO COLEGIALES 3 AMBIENTES CON COCHERA Y BALCON","Departamento","Venta",-34.5810083,-58.4493283
"202007","CABA","Comuna 2",3,89,75,215000,"USD","DPTO VENTA 3 AMB C/DEP, ESP. GUARD Y BAUL RECOLETA","Departamento","Venta",-34.594423,-58.413456
"202007","CABA","Comuna 15",3,53,50,130000,"USD","VENTA DEPARTAMENTO y BAULERA VILLA CRESPO","Departamento","Venta",-34.603211,-58.4382541
"202007","CABA","Comuna 15",3,75,64,220000,"USD","Departamento de 3 ambientes en Venta en Villa crespo","Departamento","Venta",-34.5900555,-58.4493062
"202007","CABA","Comuna 15",3,56,54,102000,"USD","Excelente Departamento de 3 ambientes luminoso con excelente acceso y medios de transporte","Departamento","Venta",-34.6018262,-58.4369967
"202007","CABA","Comuna 15",3,74,70,187000,"USD","VENTA DEPARTAMENTO VILLA CREPO con COCHERA","Departamento","Venta",-34.5947209,-58.4442897
"202007","CABA","Comuna 15",3,84,79,190000,"USD","Departamento de 3 ambientes en Venta en Villa crespo","Departamento","Venta",-34.5967927375,-58.4425531169
"202007","CABA","Comuna 15",3,56,54,105000,"USD","Departamento de 3 ambientes luminoso con excelente acceso y medios de transporte","Departamento","Venta",-34.6018262,-58.4369967
"202007","CABA","Comuna 1",3,56,52,87000,"USD","DEPARTAMENTO-VENTA-3AMB.-CAP.FED-SAN CRISTOBAL","Departamento","Venta",-34.62242,-58.387227
"202007","CABA","Comuna 12",3,65,52,177000,"USD","DEPARTAMENTO 3 AMBIENTES - VILLA URQUIZA /OPCIONAL COCHERA","Departamento","Venta",-34.5672815,-58.4858607
"202007","CABA","Comuna 12",3,100,75,255000,"USD","DEPARTAMENTO 3 AMBIENTES - VILLA URQUIZA","Departamento","Venta",-34.5699535,-58.4883933
"202007","CABA","Comuna 12",3,98,77,169000,"USD","VENTA 3 AMB V. URQUIZA A ESTRENAR PATIO OPC.COCH.","Departamento","Venta",-34.565378,-58.488685
"202007","CABA","Comuna 12",3,63,60,170000,"USD","VENTA - TRES AMBIENTES - VILLA URQUIZA","Departamento","Venta",-34.567592,-58.472714
"202007","GBA","Vicente López",3,62,57,135000,"USD","Departamento - Munro-Este","Departamento","Venta",-34.5338254,-58.5242688
"202007","GBA","Vicente López",3,117,107,720000,"USD","Al Río - Hermoso 3 ambientes con cochera, en venta","Departamento","Venta",-34.5331762152,-58.4650612698
"202007","GBA","Vicente López",3,77,66,155000,"USD","Venta 3 Ambientes Vicente Lopez vista al Rio","Departamento","Venta",-34.53229,-58.478977
"202007","CABA","Comuna 11",4,109,100,165000,"USD","Departamento - Villa del Parque","Departamento","Venta",-34.6036124,-58.4951551
"202007","GBA","General San Martín",3,62,62,150000,"USD","Venta Semipiso 3 Amb.  - Villa Ballester","Departamento","Venta",-34.549795,-58.5498662
"202007","GBA","Lanús",3,150,70,70000,"USD","Venta Ph 3 amb con patio y espacio aereo AP. CRED.","PH","Venta",-34.688551,-58.429955
"202007","CABA","Comuna 14",4,190,190,490000,"USD","Depto.tipo casa de 4 ambientes en Venta en Palermo","PH","Venta",-34.5866862071,-58.4213150669
"202007","CABA","Comuna 11",4,98,75,103000,"USD","PH 4 amb - Venta - Floresta - CABA.","PH","Venta",-34.62302,-58.486383
"202007","CABA","Comuna 14",4,190,190,490000,"USD","Depto.tipo casa de 4 ambientes en Venta en Recoleta","PH","Venta",-34.5866862071,-58.4213150669
"202007","CABA","Comuna 6",4,114,114,275001,"USD","Depto.tipo casa de 4 ambientes en Venta en Cid campeador","PH","Venta",-34.6097156,-58.4433275
"202007","CABA","Comuna 6",4,94,94,275001,"USD","Depto.tipo casa de 4 ambientes en Venta en Caballito","PH","Venta",-34.6097156,-58.4433275
"202007","GBA","La Matanza",5,329,329,260000,"USD","VENTA PH TIPO 5 AMB RAMOS MEJIA APTO PROFESIONAL","PH","Venta",-34.648654,-58.563496
"202007","CABA","Comuna 6",4,114,114,275001,"USD","Depto.tipo casa de 4 ambientes en Venta en Villa crespo","PH","Venta",-34.6097156,-58.4433275
"202007","CABA","Comuna 14",4,84,84,190000,"USD","Depto.tipo casa de 4 ambientes en Venta en Villa crespo","PH","Venta",-34.59532,-58.42485
"202007","CABA","Comuna 6",4,114,114,275001,"USD","Depto.tipo casa de 4 ambientes en Venta en Parque centenario","PH","Venta",-34.6097156,-58.4433275
"202007","GBA","Pilar",4,150,110,204000,"USD","Casa - San Eduardo","Casa","Venta",-34.3864305,-58.8625715
"202007","GBA","Tigre",4,120,110,140000,"USD","Casa  a construir sobre lote en Barrio Vila Marina 1. El precio incluye lote.","Casa","Venta",-34.36876678,-58.68862152
"202007","GBA","Tigre",4,300,120,160000,"USD","Moderna casa de 4 ambientes en Barrio Santa Maria","Casa","Venta",-34.379287556,-58.6916255951
"202007","GBA","Escobar",4,1260,200,250000,"USD","Casa 4 amb. dependencia y Pileta - El Trebol","Casa","Venta",-34.340708,-58.849876
"202007","GBA","Escobar",5,280,210,255000,"USD","VENTA CASA DISEÑO EXCLUSIVO  SANTA ISABEL","Casa","Venta",-34.365096,-58.73861
"202007","CABA","Comuna 9",4,180,136,215000,"USD","Casa lote 8,66 x 11 - Reciclada - 2 plantas","Casa","Venta",-34.6463652,-58.5248007
"202007","GBA","La Plata",6,360,300,260000,"USD","Importante propiedad en City Bell, a una cuadra del Belgrano, varios destinos.","Casa","Venta",-34.8759882,-58.0777796
"202007","CABA","Comuna 5",4,90,80,224000,"USD","Departamento de 4 ambientes en Venta en Almagro","Departamento","Venta",-34.6029114,-58.4181191
"202007","CABA","Comuna 15",4,181,118,229000,"USD","Departamento de 4 ambientes en Venta en Almagro","Departamento","Venta",-34.6008577036,-58.4382504193
"202007","CABA","Comuna 5",4,90,90,150000,"USD","Departamento de 4 ambientes en Venta en Almagro","Departamento","Venta",-34.6029420834,-58.4314348643
"202007","CABA","Comuna 13",4,105,98,265000,"USD","Venta 4 ambientes - Palermo -Las Caritas","Departamento","Venta",-34.564127,-58.441005
"202007","CABA","Comuna 14",4,132,120,690000,"USD","VENTA DEPTO 4 AMB PALERMO, DEPENDENCIA, COCHERA.","Departamento","Venta",-34.583214,-58.405908
"202007","CABA","Comuna 13",4,96,81,260000,"USD","Departamento de 4 ambientes en venta en Belgrano , Retasado ","Departamento","Venta",-34.5634021,-58.4639903
"202007","CABA","Comuna 2",4,130,120,480000,"USD","VENTA DEPARTAMENTO RECOLETA 4 AMBIENTES CON DEPENDENCIA COCHERA BALCON BAULERA","Departamento","Venta",-34.5910568,-58.4026426
"202007","CABA","Comuna 2",5,110,102,285000,"USD","VENTA HERMOSO DEPARTAMENTO RECOLETA","Departamento","Venta",-34.5901695,-58.4072106
"202007","CABA","Comuna 6",4,112,101,365000,"USD","VENTA DEPARTAMENTO y COCHERA en CABALLITO","Departamento","Venta",-34.6208335,-58.4309652
"202007","CABA","Comuna 6",4,150,115,308000,"USD","Directorio 1600 - Dpto tipo casa - 2 plantas - Jardin Parrilla","Departamento","Venta",-34.630235,-58.449898
"202007","CABA","Comuna 13",4,110,100,380000,"USD","Departamento - Colegiales","Departamento","Venta",-34.5783512,-58.4510976
"202007","CABA","Comuna 2",4,105,98,290000,"USD","Venta Departamento Recoleta 4 ambientes con cochera y Balcon","Departamento","Venta",-34.5879149,-58.4041397
"202007","CABA","Comuna 15",4,76,76,160000,"USD","Departamento de 4 ambientes en Venta en Villa crespo","Departamento","Venta",-34.5944210683,-58.4464210961
"202007","CABA","Comuna 15",4,117,93,249500,"USD","DEPARTAMENTO 4 AMBIENTES - VILLA CRESPO","Departamento","Venta",-34.6002557,-58.4375724
"202007","CABA","Comuna 11",3,189,99,490000,"USD","Depto Devoto 3 amb. c/cochera, terraza y pileta","Departamento","Venta",-34.597549,-58.511508
"202007","CABA","Comuna 11",4,140,140,430000,"USD","DEPARTAMENTO 4 AMBIENTES - VILLA DEVOTO C/COCHERA Y BAULERA","Departamento","Venta",-34.6020796,-58.5070904
"202007","CABA","Comuna 15",4,105,93,270000,"USD","Venta Departamento 4 amb c/cochera Villa Ortuzar","Departamento","Venta",-34.580626,-58.467088
"202007","CABA","Comuna 12",4,99,78,250000,"USD","VENTA DE DEPARTAMENTO EN VILLA URQUIZA CON RENTA","Departamento","Venta",-34.5733,-58.4806
"202007","CABA","Comuna 5",4,90,90,150000,"USD","Departamento de 4 ambientes en Venta en Parque centenario","Departamento","Venta",-34.6029420834,-58.4314348643
"202007","GBA","Tigre",8,922,291,750000,"USD","4 amb playroom taller y oficina frente al lago","Casa","Venta",-34.443619,-58.624527
"202007","GBA","Lanús",6,386,386,349000,"USD","EXC CASA 4 DORM/PATIO/QUINCHO/GARAGE","Casa","Venta",-34.715724,-58.398261
"202007","GBA","Escobar",5,150,150,85000,"USD","Casa - Barrio El Cazador","Casa","Venta",-34.3118003,-58.7721578
"202007","GBA","Escobar",6,164,146,99000,"USD","Casa - Los Caracoles","Casa","Venta",-34.3955144,-58.7365392
"202007","CABA","Comuna 4",5,200,140,125000,"USD","Casa 4 dormitorios, Pompeya, excelente estado","Casa","Venta",-34.655933,-58.411204
"202007","CABA","Comuna 9",5,237,136,180000,"USD","VENTA-CASA-5AMB-TERRAZA C/PARRILLA","Casa","Venta",-34.658428,-58.491445
"202007","CABA","Comuna 2",7,300,217,740000,"USD","Departamento Recoleta venta","Departamento","Venta",-34.596168,-58.388336
"202007","CABA","Comuna 2",5,138,129,325000,"USD","Excelente propiedad sobre Av Santa Fe","Departamento","Venta",-34.5954254,-58.396978
"202007","CABA","Comuna 3",6,116,116,188000,"USD","Depto.tipo casa de 6 ambientes en Venta en Almagro","PH","Venta",-34.6056829,-58.408354
"202007","GBA","Vicente López",6,340,340,1300000,"USD","Terreno - Olivos-Vias/Rio","Casa","Venta",-34.50089,-58.4829382
"202007","CABA","Comuna 14",6,259,252,570000,"USD","Departamento Triplex en Av Lacroze y Av Libertador","Departamento","Venta",-34.563704,-58.438511
"202006","CABA","Comuna 14",2,40,40,90000,"USD","Venta departamento palermo","Departamento","Venta",-34.5874156,-58.4263303
"202006","CABA","Comuna 15",3,103,95,48000,"ARS","PH Sin expensas Todo luz y mucho verde en zona tranquila","PH","Alquiler",-34.5877229,-58.4809565
"202006","GBA","San Fernando",3,66,66,22000,"ARS","Departamento - S.Fer.-Vias/Libert.","Departamento","Alquiler",-34.4554449,-58.5840996
"202006","CABA","Comuna 15",3,103,95,48000,"ARS","PH con estilo - Sin expensas Todo luz y mucho verde en zona tranquila","Departamento","Alquiler",-34.5877229,-58.4809565
"202006","CABA","Comuna 6",5,415,415,530000,"USD","Casa - Caballito","Casa","Venta",-34.6237173,-58.4330975
"202006","GBA","Esteban Echeverría",5,270,220,449000,"USD","Casa - Saint Thomas Este - Oportunidad - Canning - Esteban Echeverria","Casa","Venta",-34.8886399,-58.4985468
"202006","CABA","Comuna 3",1,28,28,10000,"ARS","Hermoso y comodo dpto monoambiente en Congreso de 28 m2","Departamento","Alquiler",-34.6015927,-58.3941653
"202006","CABA","Comuna 14",2,85,66,299000,"USD","Departamento - Las Cañitas","Departamento","Venta",-34.5633451,-58.4384355
"202006","CABA","Comuna 14",3,66,62,350000,"USD","Departamento - Palermo Chico","Departamento","Venta",-34.5804117,-58.4071029
"202006","CABA","Comuna 2",3,115,115,340000,"USD","Escucho oferta! Muy buen Piso  Apto Proesional. 115mts. de categoría. 3 ambientes con dependencias. Señorial.","Departamento","Venta",-34.5925942,-58.3929046
"202006","CABA","Comuna 4",3,58,58,120000,"USD","Departamento en alquiler Hornos 1000 - Barracas","Departamento","Venta",-34.6388447,-58.3759381
"202006","CABA","Comuna 5",3,52,50,125000,"USD","ESCUCHO  TU OFERTA.Muy luminoso! 3 ambientes amplios al contrafrente. Vista abierta.  Posible financiacion.","Departamento","Venta",-34.5999011384,-58.4205438423
"202006","GBA","San Miguel",3,40,40,80000,"USD","Casa - San Miguel","Departamento","Venta",-34.5454393,-58.7229164
"202006","CABA","Comuna 2",1,40,40,165000,"USD","Excelente Departamento Apto Profesional con Cochera y AMENITIES","Departamento","Venta",-34.5897805262,-58.3963803422
"202006","CABA","Comuna 11",1,38,35,14000,"ARS","Alquiler Excelente monoambiente con balcon","Departamento","Alquiler",-34.6056046,-58.4962758
"202006","GBA","Lanús",2,40,40,16000,"ARS","PH AL FRENTE 2 AMB EN ALQUILER EN LANUS - IMPECABLE!!! - TACUARI 1400","PH","Alquiler",-34.6946436,-58.4080651
"202006","GBA","Lanús",2,40,40,11500,"ARS","PH T/CASA 2 AMB EN LANUS EN ALQUILER - CATAMARCA 1400","PH","Alquiler",-34.6875177608,-58.4017354525
"202006","GBA","San Fernando",2,60,50,15000,"ARS","PH - Beccar","PH","Alquiler",-34.4532832,-58.5286207
"202006","GBA","Escobar",2,90,70,23000,"ARS","LINDISIMO DEPARTAMENTO EN ALQUILER, LAS LIEBRES, 2 AMBIENTES","Departamento","Alquiler",-34.4416479,-58.748743
"202006","GBA","Pilar",2,70,70,25000,"ARS","Condominio Tortugas Garden - 2 ambientes con patio + parrilla","Departamento","Alquiler",-34.4426553,-58.754464
"202006","CABA","Comuna 7",2,35,35,82000,"USD","Departamento de 2 ambientes en Venta en Flores","Departamento","Venta",-34.6299510989,-58.4687154469
"202006","GBA","Lanús",2,50,50,10000,"ARS","Departamento 2 ambientes. Garantía Propietaria y demostración de ingresos  - Lanús Este","Departamento","Alquiler",-34.7115794725,-58.3852321036
"202006","CABA","Comuna 5",2,53,46,197694,"USD","Departamento de 2 ambientes en Venta en Almagro","Departamento","Venta",-34.60381,-58.41797
"202006","CABA","Comuna 5",2,56,50,129000,"USD","Departamento de 2 ambientes en Venta en Almagro norte","Departamento","Venta",-34.6053726,-58.4276083
"202006","CABA","Comuna 5",2,45,42,95000,"USD","Departamento de 2 ambientes en Venta en Almagro","Departamento","Venta",-34.605250945,-58.427087384
"202006","CABA","Comuna 5",2,53,46,194870,"USD","Departamento de 2 ambientes en Venta en Almagro","Departamento","Venta",-34.60381,-58.41797
"202006","CABA","Comuna 14",2,56,50,310000,"USD","U$S 310.000 - 2 amb con cochera - Palermo - Humboldt 2000 - Torres Mirabilia","Departamento","Venta",-34.5824230226,-58.4318735016
"202006","CABA","Comuna 14",2,51,42,230000,"USD","U$S 230.000 - 2 amb con Coch. y Baul. - Palermo - Humboldt 1900 (SaR)","Departamento","Venta",-34.5834133,-58.4337826
"202006","CABA","Comuna 14",2,43,37,152701,"USD","Departamento de 2 ambientes en Venta en Palermo","Departamento","Venta",-34.5880071,-58.4201224
"202006","CABA","Comuna 14",2,83,54,208000,"USD","Departamento de 2 ambientes en Venta en Palermo","Departamento","Venta",-34.59732979,-58.42413734
"202006","CABA","Comuna 14",2,62,62,40000,"ARS","ALQUILER DUPLEX en Arevalo 2amb 62 m2 con cochera ARS 40.000 mas gastos SIN muebles APTO PROF","Departamento","Alquiler",-34.5795423,-58.4388446
"202006","CABA","Comuna 14",2,39,35,135000,"USD","Departamento de 2 ambientes en Venta en Palermo","Departamento","Venta",-34.5776170143,-58.423764932
"202006","CABA","Comuna 14",2,50,50,155000,"USD","OPORTUNIDAD! EN PLENO PALERMO DEPTO SÚPER LUMINOSO","Departamento","Venta",-34.5796724,-58.4002472
"202006","CABA","Comuna 14",2,42,42,99000,"USD","Departamento de 2 ambientes en Venta en Palermo","Departamento","Venta",-34.5974829428,-58.4164343423
"202006","CABA","Comuna 14",2,55,50,250000,"USD","U$S 250.000 - 2 amb - Palermo - Humboldt 2000 (Vic)","Departamento","Venta",-34.5824394,-58.4328746
"202006","CABA","Comuna 14",2,70,62,330000,"USD","Venta 2amb Grande en  PALACIO BELLINI con Cochera Amenities de Hotel","Departamento","Venta",-34.5803432,-58.413156
"202006","CABA","Comuna 14",2,62,46,228400,"USD","Departamento de 2 ambientes en Venta en Palermo","Departamento","Venta",-34.5897665,-58.4207279
"202006","CABA","Comuna 14",2,30,30,16000,"ARS","Departamento de 2 ambientes en Alquiler en Palermo","Departamento","Alquiler",-34.5947014166,-58.4325995561
"202006","CABA","Comuna 14",2,43,34,152100,"USD","Departamento de 2 ambientes en Venta en Palermo","Departamento","Venta",-34.5897665,-58.4207279
"202006","CABA","Comuna 2",2,64,60,22001,"ARS","Departamento de 2 ambientes en Alquiler en Palermo","Departamento","Alquiler",-34.5974158,-58.4144752
"202006","CABA","Comuna 10",2,46,43,77000,"USD","Departamento de 2 ambientes en Venta en Floresta","Departamento","Venta",-34.623463396,-58.4900220712
"202006","CABA","Comuna 15",2,49,49,125000,"USD","Departamento de 2 ambientes en Venta en Cid campeador","Departamento","Venta",-34.6059054212,-58.4513262147
"202006","CABA","Comuna 15",2,49,49,125000,"USD","Departamento de 2 ambientes en Venta en Caballito","Departamento","Venta",-34.6059054212,-58.4513262147
"202006","CABA","Comuna 6",2,68,68,27000,"ARS","DEPARTAMENTO 2 AMBIENTES CON GRAN BALCON TERRAZA - EXPENSAS, ABL Y AYSA INCLUIDO","Departamento","Alquiler",-34.6155874,-58.4363888
"202006","CABA","Comuna 15",2,53,41,78000,"USD","Departamento de 2 ambientes en Venta en Chacarita","Departamento","Venta",-34.5955966314,-58.4477355791
"202006","CABA","Comuna 15",2,45,45,14500,"ARS","Departamento de 2 ambientes en Alquiler en Chacarita","Departamento","Alquiler",-34.5936607,-58.4517626
"202006","CABA","Comuna 13",2,58,50,148600,"USD","Departamento de 2 ambientes en Venta en Colegiales","Departamento","Venta",-34.5793262582,-58.4558185022
"202006","CABA","Comuna 13",2,58,50,155400,"USD","Departamento de 2 ambientes en Venta en Colegiales","Departamento","Venta",-34.5793262582,-58.4558185022
"202006","CABA","Comuna 13",2,58,50,151900,"USD","Departamento de 2 ambientes en Venta en Colegiales","Departamento","Venta",-34.5793262582,-58.4558185022
"202006","CABA","Comuna 13",2,58,50,115400,"USD","Departamento de 2 ambientes en Venta en Colegiales","Departamento","Venta",-34.5793262582,-58.4558185022
"202006","GBA","San Isidro",2,66,50,145000,"USD","OPORTUNIDAD! EN TALAR MARTÍNEZ CON BALCÓN TERRAZA COCHERA Y PARRILLA","Departamento","Venta",-34.5025349,-58.5343862
"202006","GBA","San Isidro",2,66,50,145000,"USD","OPORTUNIDAD! ESPECTACULAR TALAR MARTÍNEZ CON BALCÓN TERRAZA COCHERA Y PARRILLA","Departamento","Venta",-34.5025349,-58.5343862
"202006","CABA","Comuna 10",2,47,47,75000,"USD","Departamento de 2 ambientes en Venta en Villa luro","Departamento","Venta",-34.6353246856,-58.4864421463
"202006","CABA","Comuna 2",2,39,39,101000,"USD","Departamento Venta Barrio Norte","Departamento","Venta",-34.5985803827,-58.3967662683
"202006","CABA","Comuna 15",2,39,33,119953,"USD","Departamento de 2 ambientes en Venta en Villa crespo","Departamento","Venta",-34.5977603,-58.4408726
"202006","CABA","Comuna 15",2,33,33,71000,"USD","Departamento de 2 ambientes en Venta en Villa crespo","Departamento","Venta",-34.5923495596,-58.440448387
"202006","CABA","Comuna 15",2,49,49,125000,"USD","Departamento de 2 ambientes en Venta en Villa crespo","Departamento","Venta",-34.6059054212,-58.4513262147
"202006","CABA","Comuna 14",2,30,30,16000,"ARS","Departamento de 2 ambientes en Alquiler en Villa crespo","Departamento","Alquiler",-34.5947014166,-58.4325995561
"202006","CABA","Comuna 1",2,68,68,60000,"ARS","ALQUILER ZENCITY  EXCELENTE VISTA , LUZ Y ORIENTACION  !!!","Departamento","Alquiler",-34.6178654,-58.3608683
"202006","CABA","Comuna 12",2,50,45,160000,"USD","VENTA DEPTO 2 AMBIENTES A ESTRENAR V. URQUIZA","Departamento","Venta",-34.5705179,-58.4914578
"202006","GBA","Vicente López",2,78,70,126000,"USD","Unidades a estrenar","Departamento","Venta",-34.5264208,-58.5079294
"202006","CABA","Comuna 5",2,71,55,195000,"USD","Departamento de 2 ambientes en Venta en Parque centenario","Departamento","Venta",-34.6055727964,-58.432300606
"202006","CABA","Comuna 15",2,44,41,25000,"ARS","Departamento de 2 ambientes en Alquiler en Parque centenario","Departamento","Alquiler",-34.6022034663,-58.4358367322
"202006","CABA","Comuna 15",2,38,38,99000,"USD","Departamento de 2 ambientes en Venta en Parque centenario","Departamento","Venta",-34.6037095045,-58.4420597266
"202006","CABA","Comuna 5",2,56,50,129000,"USD","Departamento de 2 ambientes en Venta en Parque centenario","Departamento","Venta",-34.6053726,-58.4276083
"202006","GBA","Lanús",3,120,120,130000,"USD","AMPLIO 3 AMB EN PRIMER PSIO CON TERRENO LIBRE - RUCCI 2800","PH","Venta",-34.6865538495,-58.4287329339
"202006","CABA","Comuna 14",3,65,57,144900,"USD","Depto.tipo casa de 3 ambientes en Venta en Palermo","PH","Venta",-34.5937883647,-58.4280162351
"202006","CABA","Comuna 14",3,52,52,135000,"USD","Depto.tipo casa de 3 ambientes en Venta en Palermo soho","PH","Venta",-34.589405519,-58.4344515126
"202006","CABA","Comuna 14",3,52,52,135000,"USD","Depto.tipo casa de 3 ambientes en Venta en Palermo","PH","Venta",-34.589405519,-58.4344515126
"202006","GBA","Vicente López",3,125,90,38000,"ARS","Excelente Tres Ambientes con Terraza y Quincho!","PH","Alquiler",-34.540599,-58.4885
"202006","CABA","Comuna 3",3,94,94,175000,"USD","Departamento de 3 ambientes en Venta en Once","Departamento","Venta",-34.6031400479,-58.399261679
"202006","GBA","Tigre",3,240,110,370000,"USD","LOS ROBLES VILLAGE - CHINGOLO 100","Departamento","Venta",-34.4305099,-58.5896953
"202006","CABA","Comuna 3",3,81,75,169000,"USD","Departamento de 3 ambientes en Venta en Abasto","Departamento","Venta",-34.6043282106,-58.4029247813
"202006","CABA","Comuna 14",3,74,74,183000,"USD","Departamento de 3 ambientes en Venta en Almagro","Departamento","Venta",-34.5988808376,-58.4187335851
"202006","CABA","Comuna 15",3,82,74,215000,"USD","Departamento de 3 ambientes en Venta en Almagro","Departamento","Venta",-34.6039504503,-58.4375316924
"202006","CABA","Comuna 14",3,73,63,278200,"USD","Departamento de 3 ambientes en Venta en Palermo","Departamento","Venta",-34.5897665,-58.4207279
"202006","CABA","Comuna 14",3,77,70,520000,"USD","U$S 520.000 - 3 amb - Cochera - Palermo - Humboldt 2000 (JuC)","Departamento","Venta",-34.5824394,-58.4328746
"202006","CABA","Comuna 14",3,70,61,249400,"USD","Departamento de 3 ambientes en Venta en Palermo","Departamento","Venta",-34.5897665,-58.4207279
"202006","CABA","Comuna 2",3,140,132,520000,"USD","Departamento de 3 ambientes en Venta en Palermo","Departamento","Venta",-34.5950446639,-58.413965413
"202006","CABA","Comuna 14",3,99,78,398000,"USD","Excelente semipiso de 3 amb con balcón + cochera + amenities","Departamento","Venta",-34.5848952,-58.417823
"202006","CABA","Comuna 14",3,78,73,490000,"USD","RETASADO - U$S 490.000 - 3 amb con cochera - Palermo - Torres Mirabilia","Departamento","Venta",-34.582386401,-58.4319733778
"202006","CABA","Comuna 14",3,90,90,500000,"USD","VENTA CON RENTA   QUARTIER DORREGO 3 amb USD 500.000 piso ALTO Venta CON RENTA hasta Sept 2020 inclusive Alquiler: ARS 63.875 mas gastos","Departamento","Venta",-34.5773672,-58.4392644
"202006","CABA","Comuna 14",3,135,125,490000,"USD","Departamento de 3 ambientes en Venta en Palermo","Departamento","Venta",-34.5832900339,-58.413915326
"202006","CABA","Comuna 14",3,70,61,247400,"USD","Departamento de 3 ambientes en Venta en Palermo","Departamento","Venta",-34.5897665,-58.4207279
"202006","CABA","Comuna 14",3,73,63,260900,"USD","Departamento de 3 ambientes en Venta en Palermo","Departamento","Venta",-34.5897665,-58.4207279
"202006","CABA","Comuna 14",3,70,70,225000,"USD","OPORTUNIDAD ESPECTACULAR DEPARTAMENTO EN PLENO PALERMO","Departamento","Venta",-34.5796724,-58.4002472
"202006","CABA","Comuna 14",3,70,70,225000,"USD","OPORTUNIDAD ESPECTACULAR!!! EN PLENO PALERMO. BAJAS EXPENSAS","Departamento","Venta",-34.5918192,-58.4125685
"202006","CABA","Comuna 14",3,67,58,200000,"USD","Departamento de 3 ambientes en Venta en Palermo","Departamento","Venta",-34.5823545923,-58.4087125525
"202006","CABA","Comuna 14",3,70,66,260000,"USD","Departamento de 3 ambientes en Venta en Palermo","Departamento","Venta",-34.5823752447,-58.427583364
"202006","CABA","Comuna 14",3,70,61,243300,"USD","Departamento de 3 ambientes en Venta en Palermo","Departamento","Venta",-34.5897665,-58.4207279
"202006","CABA","Comuna 2",3,68,65,140000,"USD","Departamento de 3 ambientes en Venta en Balvanera","Departamento","Venta",-34.6015785316,-58.3977158427
"202006","CABA","Comuna 3",3,48,48,115000,"USD","Departamento Venta","Departamento","Venta",-34.6009030399,-58.4050501066
"202006","CABA","Comuna 15",3,75,58,120000,"USD","Departamento de 3 ambientes en Venta en Villa crespo","Departamento","Venta",-34.6010720307,-58.4463691182
"202006","CABA","Comuna 15",3,78,72,166500,"USD","Departamento de 3 ambientes en Venta en Villa crespo","Departamento","Venta",-34.6004771184,-58.437600503
"202006","CABA","Comuna 15",3,60,55,140000,"USD","Departamento de 3 ambientes en Venta en Villa crespo","Departamento","Venta",-34.6032,-58.435292
"202006","CABA","Comuna 1",3,98,98,540000,"USD","VENTA! U$ 687.000 Dto. APTO PROF. u OFICINA AA - Dock tradicional de ladrillos -  RECICLADO -  Piso alto con VISTA al DIQUE!! -","Departamento","Venta",-34.6098446,-58.3662387
"202006","GBA","Vicente López",3,73,69,191000,"USD","A Estrenar","Departamento","Venta",-34.5314004,-58.4992961
"202006","GBA","Vicente López",3,77,73,163000,"USD","Edificio a estrenar","Departamento","Venta",-34.5310104,-58.4984469
"202006","CABA","Comuna 13",4,123,119,395000,"USD","PISO ALTO SÚPER LUMINOSO c/DEP. y COCHERA PRÓXIMO COLEGIOS","Departamento","Venta",-34.5507389064,-58.4534933216
"202006","CABA","Comuna 13",4,123,119,350000,"USD","PISO ALTO SÚPER LUMINOSO c/DEP. y COCHERA PRÓXIMO COLEGIOS","Departamento","Venta",-34.5507389064,-58.4534933216
"202006","CABA","Comuna 5",4,108,96,269900,"USD","Departamento de 4 ambientes en Venta en Almagro","Departamento","Venta",-34.6033415,-58.4273092
"202006","CABA","Comuna 2",4,106,96,295000,"USD","Departamento de 4 ambientes en Venta en Almagro","Departamento","Venta",-34.5981784441,-58.4152367035
"202006","CABA","Comuna 5",4,91,87,215000,"USD","Departamento de 4 ambientes en Venta en Almagro norte","Departamento","Venta",-34.6029045655,-58.4273025823
"202006","CABA","Comuna 13",4,123,119,350000,"USD","OPORTUNIDAD! PRÓXIMO COLEGIOS -PISO ALTO LUMINOSO c/COCHERA","Departamento","Venta",-34.5506908,-58.4531638
"202006","CABA","Comuna 13",4,171,171,1350000,"USD","VENTA o ALQUILER: Torre BELVEDERE - Proyecto AISENSON - U$4.300 mas gastos o U$5.600 paquete, SIN muebles. Pileta cubierta!","Departamento","Venta",-34.563052,-58.4462053
"202006","CABA","Comuna 13",4,171,171,1250000,"USD","VENTA U$1.250.000: o ALQUILER USD 4.000 mas gastos sin muebles  Torre BELVEDERE - Proyecto AISENSON -  Pileta cubierta!","Departamento","Venta",-34.563052,-58.4462053
"202006","CABA","Comuna 13",4,91,81,290001,"USD","Departamento de 4 ambientes en Venta en Belgrano","Departamento","Venta",-34.5569666,-58.4601478
"202006","CABA","Comuna 1",4,163,140,580000,"USD","Departamento de 4 ambientes en Venta en Recoleta","Departamento","Venta",-34.5900076,-58.3829552
"202006","CABA","Comuna 2",4,78,75,199000,"USD","Departamento de 4 ambientes en Venta en Barrio norte","Departamento","Venta",-34.5976964951,-58.4147214455
"202006","CABA","Comuna 14",4,98,90,40000,"ARS","Av. Coronel Diaz - Barrio Norte - 4 amb c/dep.","Departamento","Alquiler",-34.5905344,-58.4115619
"202006","CABA","Comuna 15",4,105,95,240001,"USD","Departamento de 4 ambientes en Venta en Villa crespo","Departamento","Venta",-34.5929855,-58.4460603
"202006","CABA","Comuna 15",4,116,103,277000,"USD","Departamento de 4 ambientes en Venta en Villa crespo","Departamento","Venta",-34.6070918749,-58.4455606681
"202006","CABA","Comuna 15",4,90,82,185000,"USD","Departamento de 4 ambientes en Venta en Villa crespo","Departamento","Venta",-34.6006165482,-58.444139182
"202006","CABA","Comuna 15",4,82,74,189000,"USD","Departamento de 4 ambientes en Venta en Villa crespo","Departamento","Venta",-34.5940525944,-58.442782288
"202006","GBA","Vicente López",4,142,92,280000,"USD","Excelente unidad a estrenar","Departamento","Venta",-34.5314004,-58.4992961
"202006","CABA","Comuna 1",5,201,166,630000,"USD","VENTA USD 680.000 regio semipiso ALTO vista abierta y al río 200m2 3 dormit. 2 coch fijas seg. 24 hs.","Departamento","Venta",-34.5921884,-58.3790738
"202006","CABA","Comuna 14",5,390,390,2900000,"USD","VENTA Torre MARIO R. ALVAREZ piso bajo de máxima categoría 4 suites 3 cocheras 390m2","Departamento","Venta",-34.5671719,-58.4306338
"202006","CABA","Comuna 2",5,220,220,590000,"USD","Excelente piso en torre de categoría","Departamento","Venta",-34.5933257,-58.4050871
"202006","CABA","Comuna 15",5,91,82,198000,"USD","Departamento de 5 ambientes en Venta en Parque centenario","Departamento","Venta",-34.6039,-58.44241
"202006","CABA","Comuna 14",6,270,270,845000,"USD","RETASADO VENTA excelente PISO bajo con mucha luz y calidad de materiales","Departamento","Venta",-34.576959,-58.405434
"202006","CABA","Comuna 2",6,160,150,75000,"ARS","IMPECABLE DEPARTAMENTO EN ALQUILER- 3 dormitorios y dependencia","Departamento","Alquiler",-34.5891322,-58.3869584
"202006","CABA","Comuna 14",7,498,498,2500000,"USD","VENTA PISO ALTO 500 m2 con excelente vista Río e Hipódromo 3 suites 4o5 dormit 3 cocheras 2 bauleras","Departamento","Venta",-34.5664089,-58.4323004
"202006","GBA","Lanús",3,75,70,18000,"ARS","ALQ 3 AMB CON COCHERA EN LANUS ESTE","Departamento","Alquiler",-34.7112972,-58.3876952
"202006","GBA","Lanús",2,50,50,13000,"ARS","HERMOSO DEPTO 2 AMB A/FTE EN ALQUILER EN LANÚS OESTE - PLAUL 500","Departamento","Alquiler",-34.6797742,-58.3950576
"202006","CABA","Comuna 14",1,33,29,92400,"USD","Departamento  de 1 ambiente en venta en  Palermo Hollywood","Departamento","Venta",-34.5846848,-58.4426104
"202006","CABA","Comuna 13",1,46,44,22000,"ARS","Esplendido monoambiente dividido. 46 metros! con balcón y cochera. Muy luminoso!","Departamento","Alquiler",-34.5784121,-58.4616933
"202006","GBA","La Matanza",1,31,31,56000,"USD","Departamento A Estrenar En Venta - Ramos Mejia","Departamento","Venta",-34.6494793,-58.5759166
"202006","GBA","La Matanza",1,29,29,43500,"USD","Departamento A Estrenar En Venta - Ramos Mejia","Departamento","Venta",-34.6494793,-58.5759166
"202006","GBA","Lanús",2,37,35,14000,"ARS","Departamento con cochera descubierta. Gtia Propietaria y demostración de ingresos- Lanús Este","Departamento","Alquiler",-34.703241,-58.387681
"202006","CABA","Comuna 14",2,85,44,220000,"USD","Esplendido 2 ambientes o con cochera, balcón aterrazado  y terraza ! Unico.","Departamento","Venta",-34.5929949,-58.4242971
"202006","CABA","Comuna 14",2,52,42,230000,"USD","Muy luminoso 2 ambientes, con balcón aterrazado, Parrilla propia  y cochera. Amenities  Listo para entrar! NIC CAÑITAS-","Departamento","Venta",-34.5705798443,-58.4336332005
"202006","CABA","Comuna 14",2,46,41,127900,"USD","Departamento  de dos ambientes en venta en  Palermo Hollywood","Departamento","Venta",-34.5846848,-58.4426104
"202006","CABA","Comuna 3",2,41,41,83000,"USD","Escucho tu oferta!. Muy luminoso 2 ambientes amplios con grandes placares. Muy lindo edificio.","Departamento","Venta",-34.6005497912,-58.4103179651
"202006","GBA","Avellaneda",2,48,45,85000,"USD","Departamento - Wilde","Departamento","Venta",-34.6995226,-58.3120139
"202006","CABA","Comuna 11",2,46,40,132000,"USD","Impecable 2 ambientes con balcon, lavadero separado , sum y parrilla. APTO PROFESIONAL. ESCUCHO  TU OFERTA.","Departamento","Venta",-34.5911227,-58.5122729
"202006","CABA","Comuna 15",2,61,50,171500,"USD","Venta Dúplex 3 Ambientes Balcón Terraza a Estrenar en Parque Chas (Villa Urquiza)","Departamento","Venta",-34.584844,-58.4768569
"202006","GBA","Lanús",3,110,100,180000,"USD","TIPO CASA AL FRENTE 3 AMB CON PATIO Y TERRAZA EN LANUS OESTE","Casa","Venta",-34.7101203,-58.3938058
"202006","GBA","Tres de Febrero",3,75,75,15000,"ARS","Casa 3 ambientes c/cochera - Villa Bosch","Casa","Alquiler",-34.5836232,-58.5737997
"202006","CABA","Comuna 2",3,134,129,460000,"USD","Para exigentes! 3 ambientes increíbles!cochera, balcón,  y baulera!","Departamento","Venta",-34.5909585,-58.395094
"202006","GBA","San Isidro",4,120,120,280000,"USD","PH - Mart.-Santa Fe/Fleming","PH","Venta",-34.4942785,-58.5211904
"202006","GBA","San Isidro",4,216,216,415000,"USD","Casa - Martinez","Casa","Venta",-34.4889044,-58.5114823
"202006","GBA","Quilmes",4,110,100,270000,"USD","Departamento - Quilmes Oeste","Departamento","Venta",-34.7256767,-58.2532847
"202006","CABA","Comuna 6",4,96,92,230000,"USD","Muy buen 4 ambientes Muy luminoso, balcón corrido, escritorio, dependencias de servicio y baulera.","Departamento","Venta",-34.6182084021,-58.4313252983
"202006","CABA","Comuna 14",5,330,260,720000,"USD","PH - Palermo - Local - Vivienda 3 dormitorios - Lote propio - 330m2 totales","PH","Venta",-34.5941873,-58.414699
"202006","GBA","Lanús",5,250,200,370000,"USD","SEMIPISO 5 AMB CON COCHERA EN EDIFICIO DE CATEGORÍA LANUS E","Departamento","Venta",-34.7092874,-58.3873279
"202006","CABA","Comuna 2",5,141,132,310000,"USD","Muy cómodo y amplio Piso en Recoleta,  5 ambientes con dependencias de servicio y balcón corrido.","Departamento","Venta",-34.5876329873,-58.3873675772
"202006","GBA","Tigre",2,76,44,135000,"USD","Nordelta - EL PALMAR - 2 ambientes con terraza propia - Vista a la laguna - IMPECABLE","Departamento","Venta",-34.4257278244,-58.6569762877
"202006","GBA","San Isidro",1,40,35,15000,"ARS","Edificio Syrah, lindisimo monoambiente en Beccar","Departamento","Alquiler",-34.4600833,-58.5287527
"202006","CABA","Comuna 14",2,40,40,20000,"ARS","Departamento de 2 ambientes en Alquiler en Palermo","Departamento","Alquiler",-34.5786425674,-58.4273160872
"202006","CABA","Comuna 14",2,46,40,26000,"ARS","Alquiler: Hermoso departamento - super luminoso y excelente estado - piscina · gimnasio · laundry","Departamento","Alquiler",-34.5805221,-58.4115432
"202006","CABA","Comuna 2",2,47,42,20000,"ARS","Departamento de 2 ambientes en Alquiler en Recoleta","Departamento","Alquiler",-34.595148,-58.394654
"202006","CABA","Comuna 6",2,48,39,20000,"ARS"," Curapaligue Al 400, al frente. 2 Ambientes con balcon. Terraza y parrilla","Departamento","Alquiler",-34.6293451057,-58.4523589344
"202006","CABA","Comuna 15",2,59,42,22000,"ARS","Alquiler 2 Ambientes Patio propio con Parrilla","Departamento","Alquiler",-34.601289,-58.437491
"202006","CABA","Comuna 15",2,49,45,22000,"ARS","Departamento de 2 ambientes en Alquiler en Villa crespo","Departamento","Alquiler",-34.594755343,-58.4351333586
"202006","CABA","Comuna 1",2,65,60,90000,"ARS","2 AMBIENTES AMOBLADO ALQUILER ART MARIA CON COCHERA PUERTO MADERO","Departamento","Alquiler",-34.6213036,-58.3618302
"202006","CABA","Comuna 11",3,81,65,36000,"ARS","ALQUILER 3 AMBIENTES PH  Villa Devoto","PH","Alquiler",-34.6156667,-58.5203797
"202006","GBA","General San Martín",3,90,70,15000,"ARS","CASA PH 3 AMB CON PATIO LOMA HERMOSA","PH","Alquiler",-34.5633053,-58.5942473
